[{"address":"\uc81c\uc8fc\ud2b9\ubcc4\uc790\uce58\ub3c4 \uc81c\uc8fc\uc2dc \ud55c\ub9bc\uc74d \uadc0\ub355\ub9ac 1195-1(\ub300)","location":"\ub9ac\uc0ac\ubb34\uc18c \uc785\uad6c","latitude":33.444151,"longtitude":126.294594},{"address":"\uc81c\uc8fc\ud2b9\ubcc4\uc790\uce58\ub3c4 \uc81c\uc8fc\uc2dc \ud55c\ub9bc\uc74d \uadc0\ub355\ub9ac 2453-3(\ub300)","location":"\uc2e0\uc11c\ub3d9 \uc9d1\ud558\uc7a5 \uc55e","latitude":33.432083,"longtitude":126.288722},{"address":"\uc81c\uc8fc\ud2b9\ubcc4\uc790\uce58\ub3c4 \uc81c\uc8fc\uc2dc \ud55c\ub9bc\uc74d \uadc0\ub355\ub9ac 4174(\ub3c4)","location":"\uc0ac\ub3d9 \ub9e4\uc5ed\ub3d9\uc0b0","latitude":33.431374,"longtitude":126.288467},{"address":"\uc81c\uc8fc\ud2b9\ubcc4\uc790\uce58\ub3c4 \uc81c\uc8fc\uc2dc \ud55c\ub9bc\uc74d \uadc0\ub355\ub9ac 1645-3(\ub3c4)","location":"\uc131\ub85c\uc0bc\uac70\ub9ac","latitude":33.435567,"longtitude":126.296171},{"address":"\uc81c\uc8fc\ud2b9\ubcc4\uc790\uce58\ub3c4 \uc81c\uc8fc\uc2dc \ud55c\ub9bc\uc74d \uadc0\ub355\ub9ac 1676-3","location":"\uc131\ub85c\ub3d9 \uc11c\ucabd \ub05d","latitude":33.435638,"longtitude":126.293985},{"address":"\uc81c\uc8fc\ud2b9\ubcc4\uc790\uce58\ub3c4 \uc81c\uc8fc\uc2dc \ud55c\ub9bc\uc74d \uadc0\ub355\ub9ac 3011-3(\ub3c4)","location":"\uc5b4\ucd0c\uacc4\ud69f\uc9d1 \ub9de\uc740\ud3b8\ub3c4\ub85c","latitude":33.444056,"longtitude":126.290369},{"address":"\uc81c\uc8fc\ud2b9\ubcc4\uc790\uce58\ub3c4 \uc81c\uc8fc\uc2dc \ud55c\ub9bc\uc74d \uadc0\ub355\ub9ac 1008-1(\ub300)","location":"\uc8fc\uc601(\uad6c \ub18d\ud611\ucc3d\uace0)\ub9de\uc740\ud3b8 \ub300\ub3c4\ub85c\ubcc0","latitude":33.446262,"longtitude":126.294407},{"address":"\uc81c\uc8fc\ud2b9\ubcc4\uc790\uce58\ub3c4 \uc81c\uc8fc\uc2dc \ud55c\ub9bc\uc74d \uadc0\ub355\ub9ac 976-8","location":"\ub3d9\ucd95\ud56d \uc785\uad6c","latitude":33.447527,"longtitude":126.294214},{"address":"\uc81c\uc8fc\ud2b9\ubcc4\uc790\uce58\ub3c4 \uc81c\uc8fc\uc2dc \ud55c\ub9bc\uc74d \uadc0\ub355\ub9ac 710-4(\ub3c4) \uadc0\ub355\ub85c 62","location":"\uc815\uc11d \uc544\ub798 \ud3ed\ub0ad \ub9de\uc740\ud3b8","latitude":33.440694,"longtitude":126.297277},{"address":"\uc81c\uc8fc\ud2b9\ubcc4\uc790\uce58\ub3c4 \uc81c\uc8fc\uc2dc \ud55c\ub9bc\uc74d \uadc0\ub355\ub9ac 1893-1(\ub3c4)","location":"\uc2e0\uc11c\ub3d9 \ub3d9\ub3d9\ub124 \uc0bc\uac70\ub9ac \ubd80\uadfc","latitude":33.429645,"longtitude":126.292527},{"address":"\uc81c\uc8fc\ud2b9\ubcc4\uc790\uce58\ub3c4 \uc81c\uc8fc\uc2dc \ud55c\ub9bc\uc74d \uadc0\ub355\ub9ac 1091","location":"\ud574\uc131\uc544\ud30c\ud2b8 \uc785\uad6c","latitude":33.442615,"longtitude":126.291973},{"address":"\uc81c\uc8fc\ud2b9\ubcc4\uc790\uce58\ub3c4 \uc81c\uc8fc\uc2dc \ud55c\ub9bc\uc74d \uadc0\ub355\ub9ac 1311-3","location":"\uc911\ub3d9\ud68c\uad00 \ub0a8\ucabd","latitude":33.439414,"longtitude":126.295653},{"address":"\uc81c\uc8fc\ud2b9\ubcc4\uc790\uce58\ub3c4 \uc81c\uc8fc\uc2dc \ud55c\ub9bc\uc74d \uadc0\ub355\ub9ac 431","location":"\uc6b0\uc8fc\uc804\ud30c\uc13c\ud130","latitude":33.431458,"longtitude":126.296394},{"address":"\uc81c\uc8fc\ud2b9\ubcc4\uc790\uce58\ub3c4 \uc81c\uc8fc\uc2dc \ud55c\ub9bc\uc74d \uadc0\ub355\ub9ac 4070(\ub300),4174(\ub3c4)","location":"\ub9ac\uc0ac\ubb34\uc18c \uc606","latitude":33.443278,"longtitude":126.279153},{"address":"\uc81c\uc8fc\ud2b9\ubcc4\uc790\uce58\ub3c4 \uc81c\uc8fc\uc2dc \ud55c\ub9bc\uc74d \uadc0\ub355\ub9ac 3882","location":"\ucf04\uc2f1\ud134\ub9ac\uc870\ud2b8  \ud574\uc548\ub3c4\ub85c\ubcc0","latitude":33.439393,"longtitude":126.274805},{"address":"\uc81c\uc8fc\ud2b9\ubcc4\uc790\uce58\ub3c4 \uc81c\uc8fc\uc2dc \ud55c\ub9bc\uc74d \uadc0\ub355\ub9ac 4166","location":"\uc62c\ub808\ucf54\uc9c0 \uac8c\uc2a4\ud2b8\ud558\uc6b0\uc2a4","latitude":33.442811,"longtitude":126.277174},{"address":"\uc81c\uc8fc\ud2b9\ubcc4\uc790\uce58\ub3c4 \uc81c\uc8fc\uc2dc \ud55c\ub9bc\uc74d \uadc0\ub355\ub9ac 3118","location":"\ucd08\ub85d\ub9c8\uc744","latitude":33.444172,"longtitude":126.281588},{"address":"\uc81c\uc8fc\ud2b9\ubcc4\uc790\uce58\ub3c4 \uc81c\uc8fc\uc2dc \ud55c\ub9bc\uc74d \uadc0\ub355\ub9ac 3127-2(\uc7a1)","location":"\uadc0\ub3552\ub9ac \ud574\uc548\ub3c4\ub85c\ubcc0","latitude":33.444281,"longtitude":126.283397},{"address":"\uc81c\uc8fc\ud2b9\ubcc4\uc790\uce58\ub3c4 \uc81c\uc8fc\uc2dc \ud55c\ub9bc\uc74d \uadc0\ub355\ub9ac 3238","location":"\ub808\ubaac\ud558\uc6b0\uc2a4(\uc790\uccb4\uc124\uce58)","latitude":33.439389,"longtitude":126.285304},{"address":"\uc81c\uc8fc\ud2b9\ubcc4\uc790\uce58\ub3c4 \uc81c\uc8fc\uc2dc \ud55c\ub9bc\uc74d \uadc0\ub355\ub9ac 228-3(\uc804)","location":"\ucc9c\ud638\uc81c\uc77c\uc0ac\ub8cc \uc8fc\ucc28\uc7a5","latitude":33.423142,"longtitude":126.298315},{"address":"\uc81c\uc8fc\ud2b9\ubcc4\uc790\uce58\ub3c4 \uc81c\uc8fc\uc2dc \ud55c\ub9bc\uc74d \uadc0\ub355\ub9ac 2074(\ub300)","location":"\ub9ac\uc0ac\ubb34\uc18c\uc55e \uad11\uc7a5","latitude":33.421235,"longtitude":126.29637},{"address":"\uc81c\uc8fc\ud2b9\ubcc4\uc790\uce58\ub3c4 \uc81c\uc8fc\uc2dc \ud55c\ub9bc\uc74d \uadc0\ub355\ub9ac 2193-1","location":"\ub18d\ud611\ucc3d\uace0 \uc606","latitude":33.418889,"longtitude":126.296624},{"address":"\uc81c\uc8fc\ud2b9\ubcc4\uc790\uce58\ub3c4 \uc81c\uc8fc\uc2dc \ud55c\ub9bc\uc74d \uadc0\ub355\ub9ac2255-6","location":"\ub300\ub9bc~\uadc0\ub3553\ub9ac \uc785\uad6c","latitude":33.420124,"longtitude":126.291406},{"address":"\uc81c\uc8fc\ud2b9\ubcc4\uc790\uce58\ub3c4 \uc81c\uc8fc\uc2dc \ud55c\ub9bc\uc74d \uc218\uc6d0\ub9ac 960-6(\ub3c4)","location":"\ud55c\ub9bc\ube4c\ub77c \ub9de\uc740\ud3b8 \ub3d9\ucabd","latitude":33.429861,"longtitude":126.263775},{"address":"\uc81c\uc8fc\ud2b9\ubcc4\uc790\uce58\ub3c4 \uc81c\uc8fc\uc2dc \ud55c\ub9bc\uc74d \uc218\uc6d0\ub9ac 790-1(\ub300)","location":"\ub300\ub3d9, \ub300\uc81c\ube4c\ub77c \ub0b4\ubd80","latitude":33.426889,"longtitude":126.264152},{"address":"\uc81c\uc8fc\ud2b9\ubcc4\uc790\uce58\ub3c4 \uc81c\uc8fc\uc2dc \ud55c\ub9bc\uc74d \uc218\uc6d0\ub9ac 230-4 \ub4a4\ud3b8","location":"\uc5b4\ucd0c\uacc4\ud68c\uad00 \ub4a4\ud3b8","latitude":33.437705,"longtitude":126.271989},{"address":"\uc81c\uc8fc\ud2b9\ubcc4\uc790\uce58\ub3c4 \uc81c\uc8fc\uc2dc \ud55c\ub9bc\uc74d \uc218\uc6d0\ub9ac 644-6","location":"\ub300\uc0b0\ube4c\ub77c \uc778\uadfc \ud558\uc6b0\uc2a4\uc606\ub3c4\ub85c","latitude":33.430195,"longtitude":126.266094},{"address":"\uc81c\uc8fc\ud2b9\ubcc4\uc790\uce58\ub3c4 \uc81c\uc8fc\uc2dc \ud55c\ub9bc\uc74d \uc218\uc6d0\ub9ac 277-16","location":"\ub9ac\uc0ac\ubb34\uc18c \uc606","latitude":33.429608,"longtitude":126.270897},{"address":"\uc81c\uc8fc\ud2b9\ubcc4\uc790\uce58\ub3c4 \uc81c\uc8fc\uc2dc \ud55c\ub9bc\uc74d \uc218\uc6d0\ub9ac 713-8","location":"\ucde8\ub77d\uad6c\uc870 \uc0bc\uac70\ub9ac \ud401\ub0ad \uc55e","latitude":33.428013,"longtitude":126.267653},{"address":"\uc81c\uc8fc\ud2b9\ubcc4\uc790\uce58\ub3c4 \uc81c\uc8fc\uc2dc \ud55c\ub9bc\uc74d \ub300\ub9bc\ub9ac 1591","location":"\uc218\uc6d0\ucd08\ub4f1\ud559\uad50 \ud6c4\ubb38","latitude":33.425662,"longtitude":126.27048},{"address":"\uc81c\uc8fc\ud2b9\ubcc4\uc790\uce58\ub3c4 \uc81c\uc8fc\uc2dc \ud55c\ub9bc\uc74d \ud55c\uc218\ub9ac 885-1(\ub300)","location":"\ub178\uc778\ud68c\uad00 \ub0b4\ubd80","latitude":33.423055,"longtitude":126.263609},{"address":"\uc81c\uc8fc\ud2b9\ubcc4\uc790\uce58\ub3c4 \uc81c\uc8fc\uc2dc \ud55c\ub9bc\uc74d \ud55c\uc218\ub9ac 832-9(\uc804),832-3(\uc804)","location":"\uc2e0\uc9c4\uc790\uc804\uac70\uc810 \ub9de\uc740\ud3b8 \uc8fc\ucc28\uc7a5","latitude":33.424532,"longtitude":126.265236},{"address":"\uc81c\uc8fc\ud2b9\ubcc4\uc790\uce58\ub3c4 \uc81c\uc8fc\uc2dc \ud55c\ub9bc\uc74d \ud55c\uc218\ub9ac 920-14(\ub3c4)","location":"\ud55c\uc218\ub9ac \ud574\uc548\ub3c4\ub85c\ubcc0","latitude":33.424797,"longtitude":126.263001},{"address":"\uc81c\uc8fc\ud2b9\ubcc4\uc790\uce58\ub3c4 \uc81c\uc8fc\uc2dc \ud55c\ub9bc\uc74d \ud55c\uc218\ub9ac 920-12(\uc7a1)","location":"\ud5c8\ud654\uaddc\ub301 \uc55e \ubb34\ub8cc\uc8fc\ucc28\uc7a5","latitude":33.423989,"longtitude":126.263588},{"address":"\uc81c\uc8fc\ud2b9\ubcc4\uc790\uce58\ub3c4 \uc81c\uc8fc\uc2dc \ud55c\ub9bc\uc74d \ud55c\uc218\ub9ac 845-2","location":"\ud55c\uc218\ub9ac \uc815\ub958\uc18c \uc606","latitude":33.423744,"longtitude":126.264413},{"address":"\uc81c\uc8fc\ud2b9\ubcc4\uc790\uce58\ub3c4 \uc81c\uc8fc\uc2dc \ud55c\ub9bc\uc74d \ud55c\uc218\ub9ac 879-14","location":"\ud55c\uc218\uad00\uad11\uc5b4\ucd0c\uc9c0\uc6d0\uc13c\ud130 \ub4a4","latitude":33.422305,"longtitude":126.262676},{"address":"\uc81c\uc8fc\ud2b9\ubcc4\uc790\uce58\ub3c4 \uc81c\uc8fc\uc2dc \ud55c\ub9bc\uc74d \ub300\ub9bc\ub9ac 766-4(\ucc3d)","location":"\ub9ac\uc0ac\ubb34\uc18c\uc55e \uc800\uc628\uc800\uc7a5\uace0","latitude":33.424838,"longtitude":126.280978},{"address":"\uc81c\uc8fc\ud2b9\ubcc4\uc790\uce58\ub3c4 \uc81c\uc8fc\uc2dc \ud55c\ub9bc\uc74d \ub300\ub9bc\ub9ac 1468-1(\ub3c4)","location":"\uc11c\ub3d9 \uc77c\uc8fc\ub3c4\ub85c\ubcc0\n \uc18c\uacf5\uc6d0","latitude":33.426486,"longtitude":126.277492},{"address":"\uc81c\uc8fc\ud2b9\ubcc4\uc790\uce58\ub3c4 \uc81c\uc8fc\uc2dc \ud55c\ub9bc\uc74d \ub300\ub9bc\ub9ac 578-7(\ub3c4)","location":"\ub9ac\uc0ac\ubb34\uc18c \uc606\uae38 \ud55c\ub9bc3\ub9ac \uc785\uad6c","latitude":33.423644,"longtitude":126.282016},{"address":"\uc81c\uc8fc\ud2b9\ubcc4\uc790\uce58\ub3c4 \uc81c\uc8fc\uc2dc \ud55c\ub9bc\uc74d \ub300\ub9bc\ub9ac 676-1","location":"\uc785\uc804\ub3d9 \uc815\uc790 \uc8fc\ubcc0","latitude":33.42622,"longtitude":126.285069},{"address":"\uc81c\uc8fc\ud2b9\ubcc4\uc790\uce58\ub3c4 \uc81c\uc8fc\uc2dc \ud55c\ub9bc\uc74d \ub300\ub9bc\ub9ac 456-2(\ub3c4)","location":"\uad11\uc774\ub3d9 \uc785\uad6c \uacf5\ud130","latitude":33.423333,"longtitude":126.277812},{"address":"\uc81c\uc8fc\ud2b9\ubcc4\uc790\uce58\ub3c4 \uc81c\uc8fc\uc2dc \ud55c\ub9bc\uc74d \ub300\ub9bc\ub9ac 1901-10(\uc804)","location":"\ud55c\ub9bc\uc21c\ubcf5\uc74c\uad50\ud68c \uc55e","latitude":33.42192,"longtitude":126.265288},{"address":"\uc81c\uc8fc\ud2b9\ubcc4\uc790\uce58\ub3c4 \uc81c\uc8fc\uc2dc \ud55c\ub9bc\uc74d \ub300\ub9bc\ub9ac 2019-13","location":"\uc0ac\ub3d9 \uc5b4\ub9b0\uc774\ub180\uc774\ud130(\ud55c\uc218\uc911\uacc4\ud38c\ud504\uc7a5 \uace8\ubaa9)","latitude":33.420834,"longtitude":126.263591},{"address":"\uc81c\uc8fc\ud2b9\ubcc4\uc790\uce58\ub3c4 \uc81c\uc8fc\uc2dc \ud55c\ub9bc\uc74d \ub300\ub9bc\ub9ac 1882-4","location":"\ud55c\uc218\ud480\ub3c4\uc11c\uad00 \uc785\uad6c \ub9de\uc740\ud3b8","latitude":33.42198,"longtitude":126.266984},{"address":"\uc81c\uc8fc\ud2b9\ubcc4\uc790\uce58\ub3c4 \uc81c\uc8fc\uc2dc \ud55c\ub9bc\uc74d \ub300\ub9bc\ub9ac 1705-4","location":"\uc624\uc77c\uc2dc\uc7a5 \ub0b4","latitude":33.421957,"longtitude":126.274619},{"address":"\uc81c\uc8fc\ud2b9\ubcc4\uc790\uce58\ub3c4 \uc81c\uc8fc\uc2dc \ud55c\ub9bc\uc74d \ub300\ub9bc\ub9ac 1885","location":"\uc8fc\uacf5\uc544\ud30c\ud2b8","latitude":33.421294,"longtitude":126.266174},{"address":"\uc81c\uc8fc\ud2b9\ubcc4\uc790\uce58\ub3c4 \uc81c\uc8fc\uc2dc \ud55c\ub9bc\uc74d \ub300\ub9bc\ub9ac 1853-1","location":"\ubbf8\ub4ec\uc544\ud30c\ud2b8","latitude":33.420953,"longtitude":126.268311},{"address":"\uc81c\uc8fc\ud2b9\ubcc4\uc790\uce58\ub3c4 \uc81c\uc8fc\uc2dc \ud55c\ub9bc\uc74d \ub300\ub9bc\ub9ac 417-1","location":"\ubc18\uc11d\uc544\ud30c\ud2b8","latitude":33.422921,"longtitude":126.275921},{"address":"\uc81c\uc8fc\ud2b9\ubcc4\uc790\uce58\ub3c4 \uc81c\uc8fc\uc2dc \ud55c\ub9bc\uc74d \ub300\ub9bc\ub9ac 1771-6","location":"\uc81c\uc8fc \ub300\ub9bc\uc694\uc591\ubcd1\uc6d0","latitude":33.420501,"longtitude":126.269015},{"address":"\uc81c\uc8fc\ud2b9\ubcc4\uc790\uce58\ub3c4 \uc81c\uc8fc\uc2dc \ud55c\ub9bc\uc74d \ub300\ub9bc\ub9ac 2015","location":"\uc0ac\ud615\uc81c\ud69f\uc9d1","latitude":33.424419,"longtitude":126.266056},{"address":"\uc81c\uc8fc\ud2b9\ubcc4\uc790\uce58\ub3c4 \uc81c\uc8fc\uc2dc \ud55c\ub9bc\uc74d \ud55c\ub9bc\ub9ac 1328-62(\ub3c4)","location":"\ub9ac\uc0ac\ubb34\uc18c \uc55e","latitude":33.418245,"longtitude":126.262176},{"address":"\uc81c\uc8fc\ud2b9\ubcc4\uc790\uce58\ub3c4 \uc81c\uc8fc\uc2dc \ud55c\ub9bc\uc74d \ud55c\ub9bc\ub9ac 1531-4(\ub3c4)","location":"\uc601\uc2e0\uc5f0\ub9bd \uc606 \ud55c\ud765\ube14\ub7ed\uc0ac","latitude":33.413014,"longtitude":126.263642},{"address":"\uc81c\uc8fc\ud2b9\ubcc4\uc790\uce58\ub3c4 \uc81c\uc8fc\uc2dc \ud55c\ub9bc\uc74d \ud55c\ub9bc\ub9ac 1449-2(\ub3c4)","location":"\uc655\uc218\ud559\uad50\uc2e4 \uc0bc\uac70\ub9ac","latitude":33.414207,"longtitude":126.264171},{"address":"\uc81c\uc8fc\ud2b9\ubcc4\uc790\uce58\ub3c4 \uc81c\uc8fc\uc2dc \ud55c\ub9bc\uc74d \ud55c\ub9bc\ub9ac 1328-39","location":"\uc548\ub3d9\uad6d\ubc25 \ub9de\uc740\ud3b8","latitude":33.417448,"longtitude":126.263262},{"address":"\uc81c\uc8fc\ud2b9\ubcc4\uc790\uce58\ub3c4 \uc81c\uc8fc\uc2dc \ud55c\ub9bc\uc74d \ud55c\ub9bc\ub9ac 1421-2","location":"\uc911\uc559\uc57d\uad6d \uc606","latitude":33.415741,"longtitude":126.264278},{"address":"\uc81c\uc8fc\ud2b9\ubcc4\uc790\uce58\ub3c4 \uc81c\uc8fc\uc2dc \ud55c\ub9bc\uc74d \ud55c\ub9bc\ub9ac 1213-2","location":"\uae40\ubc25\ucc9c\uad6d \uc606 \uc8fc\ucc28\uc7a5","latitude":33.415861,"longtitude":126.2647},{"address":"\uc81c\uc8fc\ud2b9\ubcc4\uc790\uce58\ub3c4 \uc81c\uc8fc\uc2dc \ud55c\ub9bc\uc74d \ud55c\ub9bc\ub9ac 1388","location":"\ud55c\ub9bc\uace0\ubb3c\uc0c1 \uc55e(\uc8fc\ubbfc\uc790\uce58\uc13c\ud130 \ub4a4)","latitude":33.414548,"longtitude":126.262697},{"address":"\uc81c\uc8fc\ud2b9\ubcc4\uc790\uce58\ub3c4 \uc81c\uc8fc\uc2dc \ud55c\ub9bc\uc74d \ud55c\ub9bc\ub9ac 1592-4","location":"\uc131\uc6a9\uc218\uc0b0\uc785\uad6c \uc778\ub3c4\ube14\ub7ed","latitude":33.414721,"longtitude":126.258682},{"address":"\uc81c\uc8fc\ud2b9\ubcc4\uc790\uce58\ub3c4 \uc81c\uc8fc\uc2dc \ud55c\ub9bc\uc74d \ud55c\ub9bc\ub9ac 1582-7","location":"\ubbf8\ud654\uc5f0\ub9bd \uc55e","latitude":33.414103,"longtitude":126.264359},{"address":"\uc81c\uc8fc\ud2b9\ubcc4\uc790\uce58\ub3c4 \uc81c\uc8fc\uc2dc \ud55c\ub9bc\uc74d \ud55c\ub9bc\ub9ac 1525","location":"\uc720\uc131\ube4c\ub77c \uc55e","latitude":33.411354,"longtitude":126.26123},{"address":"\uc81c\uc8fc\ud2b9\ubcc4\uc790\uce58\ub3c4 \uc81c\uc8fc\uc2dc \ud55c\ub9bc\uc74d \ud55c\ub9bc\ub9ac 1377-41(\uc81c)","location":"\ub18d\ud611 \ub18d\uae30\uacc4\uc218\ub9ac\uc13c\ud130 \uc704","latitude":33.414383,"longtitude":126.254047},{"address":"\uc81c\uc8fc\ud2b9\ubcc4\uc790\uce58\ub3c4 \uc81c\uc8fc\uc2dc \ud55c\ub9bc\uc74d \ud55c\ub9bc\ub9ac 1535-1","location":"\ud55c\ub9bc\ucd08 \uc606 \uc0bc\uc601\ub178\ube14\ub9ac\uc548 \uc544\ud30c\ud2b8 \ub0b4","latitude":33.41201,"longtitude":126.262609},{"address":"\uc81c\uc8fc\ud2b9\ubcc4\uc790\uce58\ub3c4 \uc81c\uc8fc\uc2dc \ud55c\ub9bc\uc74d \ud55c\ub9bc\ub9ac 1328-15","location":"\ud55c\ub9bc \uc120\uc6d0\ubcf5\uc9c0\ud68c\uad00","latitude":33.417288,"longtitude":126.261392},{"address":"\uc81c\uc8fc\ud2b9\ubcc4\uc790\uce58\ub3c4 \uc81c\uc8fc\uc2dc \ud55c\ub9bc\uc74d \ud55c\ub9bc\ub9ac 579(\uc804)","location":"\uc6d0\uad11\uc5b4\ub9b0\uc774\uc9d1 \uc55e","latitude":33.416668,"longtitude":126.270894},{"address":"\uc81c\uc8fc\ud2b9\ubcc4\uc790\uce58\ub3c4 \uc81c\uc8fc\uc2dc \ud55c\ub9bc\uc74d \ud55c\ub9bc\ub9ac 1582(\ub3c4) (\uba85\ub791\ub85c4\uae382)","location":"\ub178\uc778\ud68c\uad00 \ub4a4 \uc8fc\ucc28\uc7a5","latitude":33.416211,"longtitude":126.266705},{"address":"\uc81c\uc8fc\ud2b9\ubcc4\uc790\uce58\ub3c4 \uc81c\uc8fc\uc2dc \ud55c\ub9bc\uc74d \ud55c\ub9bc\ub9ac 1582(\ub3c4) (\ud55c\ub9bc\ub0a82\uae38 25)","location":"\uc0b0\uc544\uc9c4\ub3d9\uc0b0","latitude":33.413203,"longtitude":126.262573},{"address":"\uc81c\uc8fc\ud2b9\ubcc4\uc790\uce58\ub3c4 \uc81c\uc8fc\uc2dc \ud55c\ub9bc\uc74d \ud55c\ub9bc\ub9ac 1309(\ub300)","location":"\ucc9c\uc8fc\uad50 \ubc84\uc2a4\uc815\ub958\uc18c \uc606","latitude":33.419574,"longtitude":126.265843},{"address":"\uc81c\uc8fc\ud2b9\ubcc4\uc790\uce58\ub3c4 \uc81c\uc8fc\uc2dc \ud55c\ub9bc\uc74d \ud55c\ub9bc\ub9ac 680-1(\uc804)","location":"\uc0bc\uc190\uac00\ub4e0 \uc544\ub798","latitude":33.412792,"longtitude":126.270897},{"address":"\uc81c\uc8fc\ud2b9\ubcc4\uc790\uce58\ub3c4 \uc81c\uc8fc\uc2dc \ud55c\ub9bc\uc74d \ud55c\ub9bc\ub9ac 1232-1","location":"\uac10\ud611 \ub4a4 \uacf5\ud130","latitude":33.416647,"longtitude":126.266494},{"address":"\uc81c\uc8fc\ud2b9\ubcc4\uc790\uce58\ub3c4 \uc81c\uc8fc\uc2dc \ud55c\ub9bc\uc74d \ud55c\ub9bc\ub9ac 905-36","location":"\uc74d\uc0ac\ubb34\uc18c \uc606 \ub3c4\ub85c","latitude":33.413033,"longtitude":126.267901},{"address":"\uc81c\uc8fc\ud2b9\ubcc4\uc790\uce58\ub3c4 \uc81c\uc8fc\uc2dc \ud55c\ub9bc\uc74d \ud55c\ub9bc\ub9ac 915-9","location":"\ubc31\ubd80\uc7a5\uc9d1 \ub9de\uc740\ud3b8","latitude":33.411132,"longtitude":126.265942},{"address":"\uc81c\uc8fc\ud2b9\ubcc4\uc790\uce58\ub3c4 \uc81c\uc8fc\uc2dc \ud55c\ub9bc\uc74d \ub300\ub9bc\ub9ac 1776-1(\ub3c4)","location":"\ub300\uba85\uc885\ud569\ud0c0\uc77c","latitude":33.419284,"longtitude":126.268064},{"address":"\uc81c\uc8fc\ud2b9\ubcc4\uc790\uce58\ub3c4 \uc81c\uc8fc\uc2dc \ud55c\ub9bc\uc74d \ud55c\ub9bc\ub9ac 1253-4","location":"\uc624\ub80c\uc9c0\ube4c \ube4c\ub77c","latitude":33.417867,"longtitude":126.269346},{"address":"\uc81c\uc8fc\ud2b9\ubcc4\uc790\uce58\ub3c4 \uc81c\uc8fc\uc2dc \ud55c\ub9bc\uc74d \ud55c\ub9bc\ub9ac 1252-3","location":"\uc131\uc6b0\uc544\ud30c\ud2b8 \uc785\uad6c  (\uc790\uccb4\uc124\uce58)","latitude":33.41755,"longtitude":126.269448},{"address":"\uc81c\uc8fc\ud2b9\ubcc4\uc790\uce58\ub3c4 \uc81c\uc8fc\uc2dc \ud55c\ub9bc\uc74d \ud55c\ub9bc\ub9ac 551-6","location":"\ub300\ud638\uc544\ud30c\ud2b8 \ub098\ub3d9 \uc606 \uacf5\ud130","latitude":33.416667,"longtitude":126.270398},{"address":"\uc81c\uc8fc\ud2b9\ubcc4\uc790\uce58\ub3c4 \uc81c\uc8fc\uc2dc \ud55c\ub9bc\uc74d \ud55c\ub9bc\ub9ac 887-2","location":"\ud55c\ub9bc\uccb4\uc721\uad00 \ub0b4\ubd80","latitude":33.410831,"longtitude":126.268135},{"address":"\uc81c\uc8fc\ud2b9\ubcc4\uc790\uce58\ub3c4 \uc81c\uc8fc\uc2dc \ud55c\ub9bc\uc74d \ud55c\ub9bc\ub9ac 600","location":"\uc815\ub0ad\uc7a5\ub840\uc2dd\uc7a5 \ub0b4\ubd80","latitude":33.412733,"longtitude":126.272198},{"address":"\uc81c\uc8fc\ud2b9\ubcc4\uc790\uce58\ub3c4 \uc81c\uc8fc\uc2dc \ud55c\ub9bc\uc74d \ud55c\ub9bc\ub9ac 89-1(\ub300)","location":"\ud55c\ub9bc3\ub9ac\uc0ac\ubb34\uc18c \uc606","latitude":33.414382,"longtitude":126.284523},{"address":"\uc81c\uc8fc\ud2b9\ubcc4\uc790\uce58\ub3c4 \uc81c\uc8fc\uc2dc \ud55c\ub9bc\uc74d \ud55c\ub9bc\ub9ac 65-5(\ub3c4)","location":"\uc591\uacf5\uc6d0\uc528\ub301 \uc55e","latitude":33.415101,"longtitude":126.281321},{"address":"\uc81c\uc8fc\ud2b9\ubcc4\uc790\uce58\ub3c4 \uc81c\uc8fc\uc2dc \ud55c\ub9bc\uc74d \ud55c\ub9bc\ub9ac 175-10","location":"\uac15\uad6c\ub9ac\uc0ac\ubb34\uc18c \uc55e","latitude":33.412084,"longtitude":126.277399},{"address":"\uc81c\uc8fc\ud2b9\ubcc4\uc790\uce58\ub3c4 \uc81c\uc8fc\uc2dc \ud55c\ub9bc\uc74d \uc0c1\ub300\ub9ac 2720-5(\uc804)","location":"\uc0c1\ub300\ub9ac\uc0ac\ubb34\uc18c \ub0b4\ubd80","latitude":33.40967,"longtitude":126.293482},{"address":"\uc81c\uc8fc\ud2b9\ubcc4\uc790\uce58\ub3c4 \uc81c\uc8fc\uc2dc \ud55c\ub9bc\uc74d \uc0c1\ub300\ub9ac 4556-1(\ub300)","location":"\uc11c\ubd80\uc694\uc591\uc6d0 \uc785\uad6c","latitude":33.394684,"longtitude":126.278522},{"address":"\uc81c\uc8fc\ud2b9\ubcc4\uc790\uce58\ub3c4 \uc81c\uc8fc\uc2dc \ud55c\ub9bc\uc74d \uc0c1\ub300\ub9ac 3509","location":"\uc0c1\ub300\ub9ac \ud55c\ud765\ube14\ub7ed\uc0ac \uc55e \ub3c4\ub85c\ubcc0","latitude":33.398752,"longtitude":126.287082},{"address":"\uc81c\uc8fc\ud2b9\ubcc4\uc790\uce58\ub3c4 \uc81c\uc8fc\uc2dc \ud55c\ub9bc\uc74d \uc0c1\ub300\ub9ac 4337","location":"\uae38\uc815\uc2e0\uac74\uac15\uc13c\ud130 \ub0b4\ubd80","latitude":33.405484,"longtitude":126.27927},{"address":"\uc81c\uc8fc\ud2b9\ubcc4\uc790\uce58\ub3c4 \uc81c\uc8fc\uc2dc \ud55c\ub9bc\uc74d \ub3d9\uba85\ub9ac 2086-1(\ub3c4)","location":"\ub18d\ud611\ucc3d\uace0 \uc55e(\uc9c4\uadfc\ub3d9 \ud68c\uad00 \uc55e)","latitude":33.405711,"longtitude":126.263811},{"address":"\uc81c\uc8fc\ud2b9\ubcc4\uc790\uce58\ub3c4 \uc81c\uc8fc\uc2dc \ud55c\ub9bc\uc74d \ub3d9\uba85\ub9ac 2062-4(\ub2f5) (\uba85\uc6d4\uc131\ub85c71)","location":"\uac1c\uba85\ubb3c(\ud669\ub8e1\uc0ac\uc785\uad6c \ub9de\uc740\ud3b8)","latitude":33.40523,"longtitude":126.262735},{"address":"\uc81c\uc8fc\ud2b9\ubcc4\uc790\uce58\ub3c4 \uc81c\uc8fc\uc2dc \ud55c\ub9bc\uc74d \ub3d9\uba85\ub9ac 1324-2","location":"\uad00\uc815 \uc606 \uacf5\ud130","latitude":33.399086,"longtitude":126.265502},{"address":"\uc81c\uc8fc\ud2b9\ubcc4\uc790\uce58\ub3c4 \uc81c\uc8fc\uc2dc \ud55c\ub9bc\uc74d \ub3d9\uba85\ub9ac 1540-1(\ub3c4)","location":"\ud55c\ub9bc\uacf5\uace0 \ud6c4\ubb38 \uc606","latitude":33.407347,"longtitude":126.269246},{"address":"\uc81c\uc8fc\ud2b9\ubcc4\uc790\uce58\ub3c4 \uc81c\uc8fc\uc2dc \ud55c\ub9bc\uc74d \ub3d9\uba85\ub9ac 175-4","location":"\ubb38\uc218\ub3d9 \uc120\uacfc\uc7a5\uc55e \uc548\uc804\uc9c0\ub300","latitude":33.385716,"longtitude":126.283458},{"address":"\uc81c\uc8fc\ud2b9\ubcc4\uc790\uce58\ub3c4 \uc81c\uc8fc\uc2dc \ud55c\ub9bc\uc74d \ub3d9\uba85\ub9ac 1601-2","location":"\uc0bc\uc77c\uc2dd\ub2f9 \uc0ac\uac70\ub9ac","latitude":33.408449,"longtitude":126.263919},{"address":"\uc81c\uc8fc\ud2b9\ubcc4\uc790\uce58\ub3c4 \uc81c\uc8fc\uc2dc \ud55c\ub9bc\uc74d \ub3d9\uba85\ub9ac 1832","location":"\uce60\uc0ac\ub3c8 \uc606 \uacf5\ud130","latitude":33.406275,"longtitude":126.260889},{"address":"\uc81c\uc8fc\ud2b9\ubcc4\uc790\uce58\ub3c4 \uc81c\uc8fc\uc2dc \ud55c\ub9bc\uc74d \ub3d9\uba85\ub9ac 663(\ub300)","location":"\uc11c\ubd80\uc18c\ubc29\uc11c \uc55e\n \ub300\ub3c4\ub85c\ubcc0","latitude":33.403089,"longtitude":126.270316},{"address":"\uc81c\uc8fc\ud2b9\ubcc4\uc790\uce58\ub3c4 \uc81c\uc8fc\uc2dc \ud55c\ub9bc\uc74d \ub3d9\uba85\ub9ac 1581-1","location":"\ud55c\ub9bc \ucf54\uc544\ub8e8\uc544\ud30c\ud2b8","latitude":33.408089,"longtitude":126.264704},{"address":"\uc81c\uc8fc\ud2b9\ubcc4\uc790\uce58\ub3c4 \uc81c\uc8fc\uc2dc \ud55c\ub9bc\uc74d \ub3d9\uba85\ub9ac 1169","location":"\uae4c\uc0ac\ub8e8\ub098 \ud39c\uc158(\ud558\ub098\uce74\uc13c\ud130)","latitude":33.392348,"longtitude":126.264689},{"address":"\uc81c\uc8fc\ud2b9\ubcc4\uc790\uce58\ub3c4 \uc81c\uc8fc\uc2dc \ud55c\ub9bc\uc74d \uba85\uc6d4\ub9ac 382-2(\uc804)","location":"\uba85\uc6d4\uc0c1\ub3d9 \ud33d\ub098\ubb34 \uacf5\ud130","latitude":33.374656,"longtitude":126.281303},{"address":"\uc81c\uc8fc\ud2b9\ubcc4\uc790\uce58\ub3c4 \uc81c\uc8fc\uc2dc \ud55c\ub9bc\uc74d \uba85\uc6d4\ub9ac 1777-5(\uacfc)","location":"\ub9ac\uc0ac\ubb34\uc18c \uc606","latitude":33.386686,"longtitude":126.267297},{"address":"\uc81c\uc8fc\ud2b9\ubcc4\uc790\uce58\ub3c4 \uc81c\uc8fc\uc2dc \ud55c\ub9bc\uc74d \uba85\uc6d4\ub9ac 2089-5","location":"\ud55c\ub9bc\uace0 \uc785\uad6c \uc0ac\uac70\ub9ac(\uad6d\ub3c4\ubcc0)","latitude":33.396461,"longtitude":126.260238},{"address":"\uc81c\uc8fc\ud2b9\ubcc4\uc790\uce58\ub3c4 \uc81c\uc8fc\uc2dc \ud55c\ub9bc\uc74d \uba85\uc6d4\ub9ac 2124(\ub3c4)","location":"\uba85\uc6d4\ub9ac \uad50\ucc28\ub85c(\uba85\uc6d4\uc131)","latitude":33.397686,"longtitude":126.262142},{"address":"\uc81c\uc8fc\ud2b9\ubcc4\uc790\uce58\ub3c4 \uc81c\uc8fc\uc2dc \ud55c\ub9bc\uc74d \uba85\uc6d4\ub9ac 152-1(\uc804)","location":"\uae30\uc131\uc601\ub18d \ub4a4\ucabd","latitude":33.36912,"longtitude":126.283553},{"address":"\uc81c\uc8fc\ud2b9\ubcc4\uc790\uce58\ub3c4 \uc81c\uc8fc\uc2dc \ud55c\ub9bc\uc74d \uba85\uc6d4\ub9ac 1965","location":"\ub3d9\uc0b0\uc288\ud37c \ub4a4 \ube0c\ub77c\uc6b4\ud2b8\ub9ac\ud0c0\uc6b4","latitude":33.392934,"longtitude":126.258683},{"address":"\uc81c\uc8fc\ud2b9\ubcc4\uc790\uce58\ub3c4 \uc81c\uc8fc\uc2dc \ud55c\ub9bc\uc74d \uae08\uc545\ub9ac 1911-3(\ub3c4)","location":"\uae08\uc545\ub9ac\uc0ac\ubb34\uc18c \uc55e","latitude":33.357417,"longtitude":126.296155},{"address":"\uc81c\uc8fc\ud2b9\ubcc4\uc790\uce58\ub3c4 \uc81c\uc8fc\uc2dc \ud55c\ub9bc\uc74d \uae08\uc545\ub9ac 1164-6 (\uae08\uc545\ubd81\ub85c 170)","location":"\ud0d0\ub77c\uc778\uacf5\uc218\uc815\uc13c\ud130","latitude":33.359273,"longtitude":126.309252},{"address":"\uc81c\uc8fc\ud2b9\ubcc4\uc790\uce58\ub3c4 \uc81c\uc8fc\uc2dc \ud55c\ub9bc\uc74d \uae08\uc545\ub9ac 1181-22","location":"\uc81c\uc77c\uc591\ub3c8\ub2e8\uc9c0 \uc785\uad6c","latitude":33.355255,"longtitude":126.313942},{"address":"\uc81c\uc8fc\ud2b9\ubcc4\uc790\uce58\ub3c4 \uc81c\uc8fc\uc2dc \ud55c\ub9bc\uc74d \uae08\uc545\ub9ac 77-5","location":"\uc131\uc774\uc2dc\ub3cc \uc80a\uc74c\uc758 \uc9d1 \ud6c4\ubb38","latitude":33.344159,"longtitude":126.326335},{"address":"\uc81c\uc8fc\ud2b9\ubcc4\uc790\uce58\ub3c4 \uc81c\uc8fc\uc2dc \ud55c\ub9bc\uc74d \uae08\uc545\ub9ac 109-7","location":"\uc774\uc2dc\ub3cc \uc8fc\ud0dd \uc8fc\ucc28\uc7a5","latitude":33.342894,"longtitude":126.32273},{"address":"\uc81c\uc8fc\ud2b9\ubcc4\uc790\uce58\ub3c4 \uc81c\uc8fc\uc2dc \ud55c\ub9bc\uc74d \uae08\uc545\ub9ac 109-6","location":"\uc774\uc2dc\ub3cc \ubcf5\uc9c0\uc758\uc6d0 \ub0b4\ubd80","latitude":33.344518,"longtitude":126.320879},{"address":"\uc81c\uc8fc\ud2b9\ubcc4\uc790\uce58\ub3c4 \uc81c\uc8fc\uc2dc \ud55c\ub9bc\uc74d \uae08\uc545\ub9ac 2048-2","location":"\uc0c8\ubb3c\ud1b5 \uc0bc\uac70\ub9ac","latitude":33.357931,"longtitude":126.297923},{"address":"\uc81c\uc8fc\ud2b9\ubcc4\uc790\uce58\ub3c4 \uc81c\uc8fc\uc2dc \ud55c\ub9bc\uc74d \uae08\uc545\ub9ac 2033-8","location":"\uc131\uc0b0\uad50\ud68c \uc0ac\uac70\ub9ac","latitude":33.359688,"longtitude":126.29842},{"address":"\uc81c\uc8fc\ud2b9\ubcc4\uc790\uce58\ub3c4 \uc81c\uc8fc\uc2dc \ud55c\ub9bc\uc74d \uae08\uc545\ub9ac 2031-16","location":"\uae08\uc545 \ub3d9\ubb3c\ubcd1\uc6d0 \uc606 \uc0bc\uac70\ub9ac","latitude":33.3608,"longtitude":126.298243},{"address":"\uc81c\uc8fc\ud2b9\ubcc4\uc790\uce58\ub3c4 \uc81c\uc8fc\uc2dc \ud55c\ub9bc\uc74d \uae08\uc545\ub9ac 2234-5(\ub3c4)","location":"\uae08\uc545\ub9ac \ub18d\ud611\ucc3d\uace0 \uc8fc\ubcc0","latitude":33.361863,"longtitude":126.295767},{"address":"\uc81c\uc8fc\ud2b9\ubcc4\uc790\uce58\ub3c4 \uc81c\uc8fc\uc2dc \ud55c\ub9bc\uc74d \uae08\uc545\ub9ac \uc0b031-15","location":"\uc81c\uc8fc\uc6b0\uc720 \uc548\ucabd","latitude":33.351858,"longtitude":126.358314},{"address":"\uc81c\uc8fc\ud2b9\ubcc4\uc790\uce58\ub3c4 \uc81c\uc8fc\uc2dc \ud55c\ub9bc\uc74d \uc0c1\uba85\ub9ac 2361(\ub3c4)","location":"\uc911\ucc9c\uc774\ubb3c \uacf5\ud130","latitude":33.360588,"longtitude":126.279123},{"address":"\uc81c\uc8fc\ud2b9\ubcc4\uc790\uce58\ub3c4 \uc81c\uc8fc\uc2dc \ud55c\ub9bc\uc74d \uc0c1\uba85\ub9ac 1111-2","location":"\ub9ac\uc0ac\ubb34\uc18c \ub9de\uc740\ud3b8 \ub3c4\ub85c","latitude":33.359224,"longtitude":126.270772},{"address":"\uc81c\uc8fc\ud2b9\ubcc4\uc790\uce58\ub3c4 \uc81c\uc8fc\uc2dc \ud55c\ub9bc\uc74d \uc0c1\uba85\ub9ac 211-12(\ub3c4)","location":"\uc870\uc131\ub3d9 \uc0bc\uac70\ub9ac","latitude":33.351924,"longtitude":126.277277},{"address":"\uc81c\uc8fc\ud2b9\ubcc4\uc790\uce58\ub3c4 \uc81c\uc8fc\uc2dc \ud55c\ub9bc\uc74d \uc0c1\uba85\ub9ac 1758-1","location":"\ub3d9\uce74\ub984","latitude":33.363471,"longtitude":126.268686},{"address":"\uc81c\uc8fc\ud2b9\ubcc4\uc790\uce58\ub3c4 \uc81c\uc8fc\uc2dc \ud55c\ub9bc\uc74d \uc6d4\ub9bc\ub9ac 3256(\ub3c4) (\uc911\uc0b0\uac04\uc11c\ub85c 3869)","location":"\ubd80\ub140\ud68c\uad00 \ub4a4","latitude":33.349003,"longtitude":126.255996},{"address":"\uc81c\uc8fc\ud2b9\ubcc4\uc790\uce58\ub3c4 \uc81c\uc8fc\uc2dc \ud55c\ub9bc\uc74d \uc6d4\ub9bc\ub9ac 3256(\ub3c4) (\uc911\uc0b0\uac04\uc11c\ub85c 3877)","location":"\uc6d4\ub9bc\ud3b8\uc758\uc810 \uc55e","latitude":33.349917,"longtitude":126.256053},{"address":"\uc81c\uc8fc\ud2b9\ubcc4\uc790\uce58\ub3c4 \uc81c\uc8fc\uc2dc \ud55c\ub9bc\uc74d \uae08\ub2a5\ub9ac 295-1(\ub3c4),2316(\ub3c4)","location":"\uc6d4\ub9bc\ub9ac \ucc3d\uace0","latitude":33.351238,"longtitude":126.255344},{"address":"\uc81c\uc8fc\ud2b9\ubcc4\uc790\uce58\ub3c4 \uc81c\uc8fc\uc2dc \ud55c\ub9bc\uc74d \uc639\ud3ec\ub9ac 127-24(\uc784)","location":"\ub9ac\uc0ac\ubb34\uc18c \uacf5\ud130","latitude":33.403034,"longtitude":126.255244},{"address":"\uc81c\uc8fc\ud2b9\ubcc4\uc790\uce58\ub3c4 \uc81c\uc8fc\uc2dc \ud55c\ub9bc\uc74d \uc639\ud3ec\ub9ac 319-2(\ub3c4)","location":"\uc601\ub18d\ubc95\uc778 \uc0bc\ub2e4 \uc606 \uace8\ubaa9","latitude":33.406034,"longtitude":126.256674},{"address":"\uc81c\uc8fc\ud2b9\ubcc4\uc790\uce58\ub3c4 \uc81c\uc8fc\uc2dc \ud55c\ub9bc\uc74d \uc639\ud3ec\ub9ac 363","location":"\uc548\uc131\uc0c1\ud68c \uc606","latitude":33.405004,"longtitude":126.254749},{"address":"\uc81c\uc8fc\ud2b9\ubcc4\uc790\uce58\ub3c4 \uc81c\uc8fc\uc2dc \ud55c\ub9bc\uc74d \uc639\ud3ec\ub9ac 500-9","location":"\uc639\ud3ec\ud69f\uc9d1 \uc55e","latitude":33.40415,"longtitude":126.251665},{"address":"\uc81c\uc8fc\ud2b9\ubcc4\uc790\uce58\ub3c4 \uc81c\uc8fc\uc2dc \ud55c\ub9bc\uc74d \uc639\ud3ec\ub9ac 618","location":"\ube44\uce58\ube4c\ub77c \uc55e \ub3c4\ub85c\ubcc0","latitude":33.401566,"longtitude":126.252334},{"address":"\uc81c\uc8fc\ud2b9\ubcc4\uc790\uce58\ub3c4 \uc81c\uc8fc\uc2dc \ud55c\ub9bc\uc74d \uc639\ud3ec\ub9ac 636-1","location":"\uc36c\ube4c\ub9ac\uc9c0\uc544\ud30c\ud2b8\ub0b4","latitude":33.400264,"longtitude":126.252931},{"address":"\uc81c\uc8fc\ud2b9\ubcc4\uc790\uce58\ub3c4 \uc81c\uc8fc\uc2dc \ud55c\ub9bc\uc74d \uc639\ud3ec\ub9ac 155","location":"\ub9e8\ub3c4\ub871\ube4c\ub77c","latitude":33.401564,"longtitude":126.254832},{"address":"\uc81c\uc8fc\ud2b9\ubcc4\uc790\uce58\ub3c4 \uc81c\uc8fc\uc2dc \ud55c\ub9bc\uc74d \ud611\uc7ac\ub9ac 2872(\ub3c4)","location":"\ud1b5\ubb3c \uc606","latitude":33.382016,"longtitude":126.254513},{"address":"\uc81c\uc8fc\ud2b9\ubcc4\uc790\uce58\ub3c4 \uc81c\uc8fc\uc2dc \ud55c\ub9bc\uc74d \ud611\uc7ac\ub9ac 2447-45(\uc7a1)","location":"\ud574\uc218\uc695\uc7a5 \ub3d9\uce21 \uc8fc\ucc28\uc7a5","latitude":33.394775,"longtitude":126.240884},{"address":"\uc81c\uc8fc\ud2b9\ubcc4\uc790\uce58\ub3c4 \uc81c\uc8fc\uc2dc \ud55c\ub9bc\uc74d \ud611\uc7ac\ub9ac 2447(\uc784)","location":"\ud574\uc218\uc695\uc7a5 \uc11c\uce21 \uc8fc\ucc28\uc7a5","latitude":33.393844,"longtitude":126.239456},{"address":"\uc81c\uc8fc\ud2b9\ubcc4\uc790\uce58\ub3c4 \uc81c\uc8fc\uc2dc \ud55c\ub9bc\uc74d \ud611\uc7ac\ub9ac 1567-1(\ub300)","location":"\ube14\ub8e8\uc624\uc158","latitude":33.39756,"longtitude":126.246913},{"address":"\uc81c\uc8fc\ud2b9\ubcc4\uc790\uce58\ub3c4 \uc81c\uc8fc\uc2dc \ud55c\ub9bc\uc74d \ud611\uc7ac\ub9ac 1468-1","location":"\uc6b0\uccb4\uad6d \ub9de\uc740\ud3b8","latitude":33.398087,"longtitude":126.24491},{"address":"\uc81c\uc8fc\ud2b9\ubcc4\uc790\uce58\ub3c4 \uc81c\uc8fc\uc2dc \ud55c\ub9bc\uc74d \ud611\uc7ac\ub9ac 1723-2","location":"\uc77c\uc8fc\ub3c4\ub85c \ud558\uc580\uc9d1\uac04\ud310 \uc55e","latitude":33.395671,"longtitude":126.242506},{"address":"\uc81c\uc8fc\ud2b9\ubcc4\uc790\uce58\ub3c4 \uc81c\uc8fc\uc2dc \ud55c\ub9bc\uc74d \ud611\uc7ac\ub9ac 1816","location":"\ud611\uc7ac\uad50\ud68c \uc785\uad6c \ub3c4\ub85c\ubcc0","latitude":33.394944,"longtitude":126.243346},{"address":"\uc81c\uc8fc\ud2b9\ubcc4\uc790\uce58\ub3c4 \uc81c\uc8fc\uc2dc \ud55c\ub9bc\uc74d \ud611\uc7ac\ub9ac 1942-3","location":"KT \uc1a1\uc2e0\ud0d1","latitude":33.395249,"longtitude":126.247665},{"address":"\uc81c\uc8fc\ud2b9\ubcc4\uc790\uce58\ub3c4 \uc81c\uc8fc\uc2dc \ud55c\ub9bc\uc74d \ud611\uc7ac\ub9ac 2504-2","location":"\ud574\uc218\uc695\uc7a5 \ud654\uc7a5\uc2e4","latitude":33.393101,"longtitude":126.238553},{"address":"\uc81c\uc8fc\ud2b9\ubcc4\uc790\uce58\ub3c4 \uc81c\uc8fc\uc2dc \ud55c\ub9bc\uc74d \ud611\uc7ac\ub9ac 876-9","location":"\uc81c\uc8fc\ub9ac\uc870\ud154 \ub0b4\ubd80","latitude":33.378169,"longtitude":126.251564},{"address":"\uc81c\uc8fc\ud2b9\ubcc4\uc790\uce58\ub3c4 \uc81c\uc8fc\uc2dc \ud55c\ub9bc\uc74d \ud611\uc7ac\ub9ac 977-1","location":"\ub0ad\ube4c\ub808 \ud558\uc6b0\uc2a4","latitude":33.382363,"longtitude":126.251587},{"address":"\uc81c\uc8fc\ud2b9\ubcc4\uc790\uce58\ub3c4 \uc81c\uc8fc\uc2dc \ud55c\ub9bc\uc74d \ud611\uc7ac\ub9ac 899-3","location":"\uae08\uac15\uc0b0\ucf58\ub3c4\ubc29\ud5a5\n \uc194\ubc2d\ub9c8\uc744(\ud558\ub974\ubc29\uc0b0\uc7a5)","latitude":33.375151,"longtitude":126.250738},{"address":"\uc81c\uc8fc\ud2b9\ubcc4\uc790\uce58\ub3c4 \uc81c\uc8fc\uc2dc \ud55c\ub9bc\uc74d \uae08\ub2a5\ub9ac 1494-7(\uc720)","location":"\ud3ec\uad6c \uc55e \uacf5\ud130","latitude":33.389304,"longtitude":126.228851},{"address":"\uc81c\uc8fc\ud2b9\ubcc4\uc790\uce58\ub3c4 \uc81c\uc8fc\uc2dc \ud55c\ub9bc\uc74d \uae08\ub2a5\ub9ac 1401(\uc7a1)","location":"\uae08\ub2a5 \uc624\ud3d0\uc218 \uc815\ud654\uc2dc\uc124 \ub4a4","latitude":33.389177,"longtitude":126.229862},{"address":"\uc81c\uc8fc\ud2b9\ubcc4\uc790\uce58\ub3c4 \uc81c\uc8fc\uc2dc \ud55c\ub9bc\uc74d \uae08\ub2a5\ub9ac 1700-1","location":"\uc138\uc6b4\uc11d\uc720 \uc55e","latitude":33.388023,"longtitude":126.225576},{"address":"\uc81c\uc8fc\ud2b9\ubcc4\uc790\uce58\ub3c4 \uc81c\uc8fc\uc2dc \ud55c\ub9bc\uc74d \uae08\ub2a5\ub9ac 1634-2(\ub3c4)","location":"\ub2a5\ud5a5\uc6d0 \uc55e","latitude":33.38595,"longtitude":126.223613},{"address":"\uc81c\uc8fc\ud2b9\ubcc4\uc790\uce58\ub3c4 \uc81c\uc8fc\uc2dc \ud55c\ub9bc\uc74d \uae08\ub2a5\ub9ac 2036-1","location":"\uae08\ub2a5\ud574\uc218\uc695\uc7a5\n \ud654\uc7a5\uc2e4","latitude":33.390003,"longtitude":126.235826},{"address":"\uc81c\uc8fc\ud2b9\ubcc4\uc790\uce58\ub3c4 \uc81c\uc8fc\uc2dc \ud55c\ub9bc\uc74d \uae08\ub2a5\ub9ac 1270-4(\ub3c4) (\ud55c\ub9bc\ub85c 201)","location":"\ubc14\ub2e4\uc640 \uacf5\uc6d0\n \ub9de\uc740\ud3b8 \ub3c4\ub85c","latitude":33.386601,"longtitude":126.229409},{"address":"\uc81c\uc8fc\ud2b9\ubcc4\uc790\uce58\ub3c4 \uc81c\uc8fc\uc2dc \ud55c\ub9bc\uc74d \uae08\ub2a5\ub9ac 407-7","location":"\uae08\ub2a5\ub18d\uacf5\ub2e8\uc9c0 \uc0bc\ub2e4 \uc0bc\uac70\ub9ac","latitude":33.359428,"longtitude":126.242717},{"address":"\uc81c\uc8fc\ud2b9\ubcc4\uc790\uce58\ub3c4 \uc81c\uc8fc\uc2dc \ud55c\ub9bc\uc74d \uae08\ub2a5\ub9ac 407-15","location":"\uae08\ub2a5\ub18d\uacf5\ub2e8\uc9c0 \ub300\uc0b0\ud30c\uc774\ud504 \uc0bc\uac70\ub9ac","latitude":33.358146,"longtitude":126.242018},{"address":"\uc81c\uc8fc\ud2b9\ubcc4\uc790\uce58\ub3c4 \uc81c\uc8fc\uc2dc \ud55c\ub9bc\uc74d \uae08\ub2a5\ub9ac 340-1","location":"\uac10\uade4\ubcf5\ud569\ucc98\ub9ac\uac00\uacf5\uacf5\uc7a5 \uc785\uad6c","latitude":33.352356,"longtitude":126.251232},{"address":"\uc81c\uc8fc\ud2b9\ubcc4\uc790\uce58\ub3c4 \uc81c\uc8fc\uc2dc \ud55c\ub9bc\uc74d \uae08\ub2a5\ub9ac 350-4","location":"\uc11c\ubd80\ub18d\uc5c5\uae30\uc220\uc13c\ud130 \ub0b4\ubd80","latitude":33.353565,"longtitude":126.248375},{"address":"\uc81c\uc8fc\ud2b9\ubcc4\uc790\uce58\ub3c4 \uc81c\uc8fc\uc2dc \ud55c\ub9bc\uc74d \uc6d4\ub839\ub9ac 424-1(\ub300)","location":"\ub9ac\uc0ac\ubb34\uc18c \ub0b4\ubd80","latitude":33.376146,"longtitude":126.215489},{"address":"\uc81c\uc8fc\ud2b9\ubcc4\uc790\uce58\ub3c4 \uc81c\uc8fc\uc2dc \ud55c\ub9bc\uc74d \uc6d4\ub839\ub9ac 317-1","location":"\uc6d4\ub839\ub9ac \ud3ec\uad6c \uacf5\ud130","latitude":33.37851,"longtitude":126.216293},{"address":"\uc81c\uc8fc\ud2b9\ubcc4\uc790\uce58\ub3c4 \uc81c\uc8fc\uc2dc \ud55c\ub9bc\uc74d \uc6d4\ub839\ub9ac 262-1","location":"\uc0bc\uac70\ub9ac\ubd80\uadfc (\uc5f0\ubabb)","latitude":33.377425,"longtitude":126.216521},{"address":"\uc81c\uc8fc\ud2b9\ubcc4\uc790\uce58\ub3c4 \uc81c\uc8fc\uc2dc \ud55c\ub9bc\uc74d \uc6d4\ub839\ub9ac 376-1","location":"\uc62c\ub808\uae38 \uc8fc\ucc28\uc7a5","latitude":33.376319,"longtitude":126.21441},{"address":"\uc81c\uc8fc\ud2b9\ubcc4\uc790\uce58\ub3c4 \uc81c\uc8fc\uc2dc \ud55c\ub9bc\uc74d \uc6d4\ub839\ub9ac 346","location":"\uc6d4\ub839\ucf54\uc9c0\ud39c\uc158 \uc55e","latitude":33.380118,"longtitude":126.21601},{"address":"\uc81c\uc8fc\ud2b9\ubcc4\uc790\uce58\ub3c4 \uc81c\uc8fc\uc2dc \uc560\uc6d4\uc74d \uc560\uc6d4\ub9ac 2060-2","location":"\ub0b4\uace0\ud5a5\uc8fc\uc720\uc18c \ub3d9\uce21","latitude":33.464767,"longtitude":126.316634},{"address":"\uc81c\uc8fc\ud2b9\ubcc4\uc790\uce58\ub3c4 \uc81c\uc8fc\uc2dc \uc560\uc6d4\uc74d \uc560\uc6d4\ub9ac 489-20","location":"\ud55c\uc6b8\uce74\uc13c\ud130 \uc548\uae38","latitude":33.466038,"longtitude":126.327419},{"address":"\uc81c\uc8fc\ud2b9\ubcc4\uc790\uce58\ub3c4 \uc81c\uc8fc\uc2dc \uc560\uc6d4\uc74d \uc560\uc6d4\ub9ac 405-4","location":"\uc560\uc6d4\uc911 \ubd81\uce21\uae38","latitude":33.464177,"longtitude":126.327676},{"address":"\uc81c\uc8fc\ud2b9\ubcc4\uc790\uce58\ub3c4 \uc81c\uc8fc\uc2dc \uc560\uc6d4\uc74d \uc77c\uc8fc\uc11c\ub85c 6233","location":"\uc560\uc6d4\uc74d\uc0ac\ubb34\uc18c \ub3d9\uce21 \uc8fc\ucc28\uc7a5","latitude":33.462281,"longtitude":126.32994},{"address":"\uc81c\uc8fc\ud2b9\ubcc4\uc790\uce58\ub3c4 \uc81c\uc8fc\uc2dc \uc560\uc6d4\uc74d \uacfd\uc9c0\ub9ac 1996-1","location":"\uacfd\uc9c0\ub9ac\uc0ac\ubb34\uc18c\n\ub9de\uc740\ud3b8","latitude":33.445406,"longtitude":126.308285},{"address":"\uc81c\uc8fc\ud2b9\ubcc4\uc790\uce58\ub3c4 \uc81c\uc8fc\uc2dc \uc560\uc6d4\uc74d \uacfd\uc9c0\ub9ac 1568-1","location":"\ud574\ubcc0\uc785\uad6c(\ub2e4\uc2dc\uc815\uc2dd\ub2f9\ub9de\uc740\ud3b8)","latitude":33.449534,"longtitude":126.305235},{"address":"\uc81c\uc8fc\ud2b9\ubcc4\uc790\uce58\ub3c4 \uc81c\uc8fc\uc2dc \uc560\uc6d4\uc74d \uacfd\uc9c0\ub9ac 1572-2","location":"\ud574\ubcc0 \uc785\uad6c(\uae38\uac00\uc628\n\ud39c\uc158 \uc55e)","latitude":33.44903,"longtitude":126.305253},{"address":"\uc81c\uc8fc\ud2b9\ubcc4\uc790\uce58\ub3c4 \uc81c\uc8fc\uc2dc \uc560\uc6d4\uc74d \uacfd\uc9c0\ub9ac 2060-12  \uc55e","location":"\ud574\ubcc0\uc785\uad6c(\uc138\ube10\n\uc77c\ub808\ube10 \uace8\ubaa9 )","latitude":33.446639,"longtitude":126.305017},{"address":"\uc81c\uc8fc\ud2b9\ubcc4\uc790\uce58\ub3c4 \uc81c\uc8fc\uc2dc \uc560\uc6d4\uc74d \uae08\uc1312\uae3824","location":"\ub9ac\uc0ac\ubb34\uc18c","latitude":33.442167,"longtitude":126.300805},{"address":"\uc81c\uc8fc\ud2b9\ubcc4\uc790\uce58\ub3c4 \uc81c\uc8fc\uc2dc \uc560\uc6d4\uc74d \uae08\uc1311\uae3815 \ub9de\uc740\ud3b8","location":"\uc2b4\uc131 554-2(\ud558\ub3d9\uc8fc\ucc28\uc7a5)","latitude":33.445564,"longtitude":126.300612},{"address":"\uc81c\uc8fc\ud2b9\ubcc4\uc790\uce58\ub3c4 \uc81c\uc8fc\uc2dc \uc560\uc6d4\uc74d \uae08\uc1312\uae3864","location":"\uae08\uc131\ub9ac(\uc0c1\ub3d9) 756-1 \ucc3d\uace0","latitude":33.439192,"longtitude":126.30158},{"address":"\uc81c\uc8fc\ud2b9\ubcc4\uc790\uce58\ub3c4 \uc81c\uc8fc\uc2dc \uc560\uc6d4\uc74d \ubd09\uc131\ub9ac 3605-3(\uad6c\ubab0\ub3d9\uae38 65)","location":"\uc120\uc6b4\uc815\uc0ac \uc55e","latitude":33.429482,"longtitude":126.307701},{"address":"\uc81c\uc8fc\ud2b9\ubcc4\uc790\uce58\ub3c4 \uc81c\uc8fc\uc2dc \uc560\uc6d4\uc74d \ubd09\uc131\ub9ac 4096-4","location":"\uc911\ud654\ub3d9","latitude":33.417209,"longtitude":126.311278},{"address":"\uc81c\uc8fc\ud2b9\ubcc4\uc790\uce58\ub3c4 \uc81c\uc8fc\uc2dc \uc560\uc6d4\uc74d \ubd09\uc131\ub85c2\uae38 13","location":"\ub9c8\uc744\uc18c\uc720(\ubb38\ud654\uc8fc\ud0dd2\ucc28)","latitude":33.416351,"longtitude":126.312126},{"address":"\uc81c\uc8fc\ud2b9\ubcc4\uc790\uce58\ub3c4 \uc81c\uc8fc\uc2dc \uc560\uc6d4\uc74d \ubd09\uc131\ub9ac 3248-2","location":"\uc2e0\uba85\ub3d9","latitude":33.417372,"longtitude":126.317248},{"address":"\uc81c\uc8fc\ud2b9\ubcc4\uc790\uce58\ub3c4 \uc81c\uc8fc\uc2dc \uc560\uc6d4\uc74d \ubd09\uc131\ub9ac 3375-1","location":"\uad6c\ubab0\ub3d9","latitude":33.42521,"longtitude":126.313314},{"address":"\uc81c\uc8fc\ud2b9\ubcc4\uc790\uce58\ub3c4 \uc81c\uc8fc\uc2dc \uc560\uc6d4\uc74d \ubd09\uc131\ub85c3\uae38 17","location":"\uc911\ud654\ub3d9\ud68c\uad00 \uc55e","latitude":33.419174,"longtitude":126.310783},{"address":"\uc81c\uc8fc\ud2b9\ubcc4\uc790\uce58\ub3c4 \uc81c\uc8fc\uc2dc \uc560\uc6d4\uc74d \ubd09\uc131\ub85c2\uae38 55 \uc0bc\uac70\ub9ac","location":"\ubd09\uc131\ub9ac 3080-9\ub3c4","latitude":33.415228,"longtitude":126.314484},{"address":"\uc81c\uc8fc\ud2b9\ubcc4\uc790\uce58\ub3c4 \uc81c\uc8fc\uc2dc \uc560\uc6d4\uc74d \ubd09\uc131\ub9ac 3816-4","location":"\ub9ac\uc0ac\ubb34\uc18c \uc606","latitude":33.421612,"longtitude":126.312702},{"address":"\uc81c\uc8fc\ud2b9\ubcc4\uc790\uce58\ub3c4 \uc81c\uc8fc\uc2dc \uc560\uc6d4\uc74d \uc5b4\uc74c1\ub9ac 3642-2","location":"\uc5b4\uc74c1\ub9ac\uc0ac\ubb34\uc18c \ub9de\uc740\ud3b8","latitude":33.416656,"longtitude":126.3311},{"address":"\uc81c\uc8fc\ud2b9\ubcc4\uc790\uce58\ub3c4 \uc81c\uc8fc\uc2dc \uc560\uc6d4\uc74d \uc5b4\uc74c1\ub9ac 3395-1","location":"\uacc4\uc6d0\ub3d9 \uc815\ub958\uc7a5 \uc606","latitude":33.409819,"longtitude":126.333892},{"address":"\uc81c\uc8fc\ud2b9\ubcc4\uc790\uce58\ub3c4 \uc81c\uc8fc\uc2dc \uc560\uc6d4\uc74d \uc5b4\uc74c2\ub9ac 2960-17 \ub300","location":"\ub9c8\uc744\ud68c\uad00(\uc5b4\uc74c2\ub9ac 2960-5)\uc606","latitude":33.400983,"longtitude":126.337029},{"address":"\uc81c\uc8fc\ud2b9\ubcc4\uc790\uce58\ub3c4 \uc81c\uc8fc\uc2dc \uc560\uc6d4\uc74d \uc5b4\uc74c2\ub9ac 2922-1","location":"\uc5b4\uc74c\ubd84\uad50\ud6c4\ubb38","latitude":33.402691,"longtitude":126.337906},{"address":"\uc81c\uc8fc\ud2b9\ubcc4\uc790\uce58\ub3c4 \uc81c\uc8fc\uc2dc \uc560\uc6d4\uc74d \ub0a9\uc74d\ub9ac 1753-4","location":"\uc81c\uc8fc\ud2b9\ubcc4\uc790\uce58\ub3c4 \uc81c\uc8fc\uc2dc \uc560\uc6d4\uc74d \ub0a9\uc74d\ub9ac 1753-4","latitude":33.439599,"longtitude":126.329631},{"address":"\uc81c\uc8fc\ud2b9\ubcc4\uc790\uce58\ub3c4 \uc81c\uc8fc\uc2dc \uc560\uc6d4\uc74d \uc560\ub0a9\ub85c 161 \uc606","location":"\uc81c\uc8fc\ud2b9\ubcc4\uc790\uce58\ub3c4 \uc81c\uc8fc\uc2dc \uc560\uc6d4\uc74d \uc560\ub0a9\ub85c 161 \uc606","latitude":33.440094,"longtitude":126.328073},{"address":"\uc81c\uc8fc\ud2b9\ubcc4\uc790\uce58\ub3c4 \uc81c\uc8fc\uc2dc \uc560\uc6d4\uc74d \ub0a9\uc74d\ub9ac 2420-2","location":"\ubd80\ub18d\uc0bc\uac70\ub9ac","latitude":33.436996,"longtitude":126.327981},{"address":"\uc81c\uc8fc\ud2b9\ubcc4\uc790\uce58\ub3c4 \uc81c\uc8fc\uc2dc \uc560\uc6d4\uc74d \ub0a9\uc74d\ub9ac 1609-5","location":"\uc81c\uc8fc\ud2b9\ubcc4\uc790\uce58\ub3c4 \uc81c\uc8fc\uc2dc \uc560\uc6d4\uc74d \ub0a9\uc74d\ub9ac 1609-5","latitude":33.438438,"longtitude":126.331798},{"address":"\uc81c\uc8fc\ud2b9\ubcc4\uc790\uce58\ub3c4 \uc81c\uc8fc\uc2dc \uc560\uc6d4\uc74d \ub0a9\uc74d\ub9ac 1622-4","location":"\uc81c\uc8fc\ud2b9\ubcc4\uc790\uce58\ub3c4 \uc81c\uc8fc\uc2dc \uc560\uc6d4\uc74d \ub0a9\uc74d\ub9ac 1622-4","latitude":33.438048,"longtitude":126.333835},{"address":"\uc81c\uc8fc\ud2b9\ubcc4\uc790\uce58\ub3c4 \uc81c\uc8fc\uc2dc \uc560\uc6d4\uc74d \ub0a9\uc74d\ub9ac 1595","location":"\uc81c\uc8fc\ud2b9\ubcc4\uc790\uce58\ub3c4 \uc81c\uc8fc\uc2dc \uc560\uc6d4\uc74d \ub0a9\uc74d\ub9ac 1595","latitude":33.437389,"longtitude":126.331896},{"address":"\uc81c\uc8fc\ud2b9\ubcc4\uc790\uce58\ub3c4 \uc81c\uc8fc\uc2dc \uc560\uc6d4\uc74d \uace0\ub0b4\ub9ac 663-4","location":"\uad6c\ub3c4\ub85c\ubc84\uc2a4\uc815\uac70\uc7a5\uc55e\uacf5\ud130","latitude":33.463012,"longtitude":126.339015},{"address":"\uc81c\uc8fc\ud2b9\ubcc4\uc790\uce58\ub3c4 \uc81c\uc8fc\uc2dc \uc560\uc6d4\uc74d \uace0\ub0b45\uae3833\uc55e","location":"\uace0\ub0b4\ub9ac 961-3","latitude":33.465022,"longtitude":126.336856},{"address":"\uc81c\uc8fc\ud2b9\ubcc4\uc790\uce58\ub3c4 \uc81c\uc8fc\uc2dc \uc560\uc6d4\uc74d \uace0\ub0b4\ub9ac 216-1","location":"\uc560\uc6d4119\uc13c\ud0c0","latitude":33.46666,"longtitude":126.349166},{"address":"\uc81c\uc8fc\ud2b9\ubcc4\uc790\uce58\ub3c4 \uc81c\uc8fc\uc2dc \uc560\uc6d4\uc74d \uc0c1\uac00\ub9ac 1196-4","location":"\ub9ac\uc0ac\ubb34\uc18c\ub0b4 \uc800\uc628\uc800\uc7a5\uace0 \ub0a8\uce21","latitude":33.449521,"longtitude":126.345954},{"address":"\uc81c\uc8fc\ud2b9\ubcc4\uc790\uce58\ub3c4 \uc81c\uc8fc\uc2dc \uc560\uc6d4\uc74d \uc0c1\uac00\ub9ac 1794-3 \uc55e","location":"\uc0c1\uac00\ub9ac\ubc84\uc2a4\ud45c\uc9c0\ud310 \ub0a8\uce21 \uc548\uae38","latitude":33.451595,"longtitude":126.341996},{"address":"\uc81c\uc8fc\ud2b9\ubcc4\uc790\uce58\ub3c4 \uc81c\uc8fc\uc2dc \uc560\uc6d4\uc74d \uc0c1\uac00\uc911\uae3843 \ub9de\uc740\ud3b8 \ud401\ub0ad","location":"\uc81c\uc8fc\ud2b9\ubcc4\uc790\uce58\ub3c4 \uc81c\uc8fc\uc2dc \uc560\uc6d4\uc74d \uc0c1\uac00\uc911\uae3843 \ub9de\uc740\ud3b8 \ud401\ub0ad","latitude":33.44992,"longtitude":126.343465},{"address":"\uc81c\uc8fc\ud2b9\ubcc4\uc790\uce58\ub3c4 \uc81c\uc8fc\uc2dc \uc560\uc6d4\uc74d \uc0c1\uac00\ub9ac 1249-1 \uc785\uad6c","location":"\uc81c\uc8fc\ud2b9\ubcc4\uc790\uce58\ub3c4 \uc81c\uc8fc\uc2dc \uc560\uc6d4\uc74d \uc0c1\uac00\ub9ac 1249-1 \uc785\uad6c","latitude":33.451417,"longtitude":126.347325},{"address":"\uc81c\uc8fc\ud2b9\ubcc4\uc790\uce58\ub3c4 \uc81c\uc8fc\uc2dc \uc560\uc6d4\uc74d \ud558\uac00\ub85c 141","location":"\ud558\uac00\ub9ac\uc0ac\ubb34\uc18c","latitude":33.457118,"longtitude":126.350011},{"address":"\uc81c\uc8fc\ud2b9\ubcc4\uc790\uce58\ub3c4 \uc81c\uc8fc\uc2dc \uc560\uc6d4\uc74d \ud558\uac00\ub85c141-2","location":"\uc5f0\ud654\uc8fc\ud0dd","latitude":33.456652,"longtitude":126.350285},{"address":"\uc81c\uc8fc\ud2b9\ubcc4\uc790\uce58\ub3c4 \uc81c\uc8fc\uc2dc \uc560\uc6d4\uc74d \ud558\uac00\ub9ac 887","location":"\ud558\uac00\ub85c 1\uae38","latitude":33.457122,"longtitude":126.352702},{"address":"\uc81c\uc8fc\ud2b9\ubcc4\uc790\uce58\ub3c4 \uc81c\uc8fc\uc2dc \uc560\uc6d4\uc74d \ud558\uac00\ub9ac 1373-2","location":"\uace0\ud558\uc0c1\ub85c","latitude":33.455343,"longtitude":126.348946},{"address":"\uc81c\uc8fc\ud2b9\ubcc4\uc790\uce58\ub3c4 \uc81c\uc8fc\uc2dc \uc560\uc6d4\uc74d \uc2e0\uc5c48\uae3810 \uc55e","location":"\uc81c\uc8fc\ud2b9\ubcc4\uc790\uce58\ub3c4 \uc81c\uc8fc\uc2dc \uc560\uc6d4\uc74d \uc2e0\uc5c48\uae3810 \uc55e","latitude":33.470563,"longtitude":126.367773},{"address":"\uc81c\uc8fc\ud2b9\ubcc4\uc790\uce58\ub3c4 \uc81c\uc8fc\uc2dc \uc560\uc6d4\uc74d \uc560\uc6d4\ud574\uc548\ub85c 466 \ub0a8\uce21\ub3c4\ub85c","location":"\uace0\uc2a4\ud2b8\ud0c0\uc6b4 \uc785\uad6c","latitude":33.47304,"longtitude":126.366938},{"address":"\uc81c\uc8fc\ud2b9\ubcc4\uc790\uce58\ub3c4 \uc81c\uc8fc\uc2dc \uc560\uc6d4\uc74d \uc2e0\uc5c4\uc5483\uae3846 \uc55e","location":"\uc12f\ub3d9\ub124","latitude":33.47386,"longtitude":126.362241},{"address":"\uc81c\uc8fc\ud2b9\ubcc4\uc790\uce58\ub3c4 \uc81c\uc8fc\uc2dc \uc560\uc6d4\uc74d \uc2e0\uc5c49\uae38 22-2","location":"\ub9ac\uc0ac\ubb34\uc18c(\uc2e0\uc5c49\uae3824) \ub3d9\uce21","latitude":33.473586,"longtitude":126.36796},{"address":"\uc81c\uc8fc\ud2b9\ubcc4\uc790\uce58\ub3c4 \uc81c\uc8fc\uc2dc \uc560\uc6d4\uc74d \uc2e0\uc5c4\ub9ac 1005-3","location":"\uc5b4\ucd0c\uacc4\uacf5\ub3d9\ucc3d\uace0 \uc55e","latitude":33.475882,"longtitude":126.366516},{"address":"\uc81c\uc8fc\ud2b9\ubcc4\uc790\uce58\ub3c4 \uc81c\uc8fc\uc2dc \uc560\uc6d4\uc74d \uc2e0\uc5c4\ub9ac 3091-1","location":"\ub18d\uc218\uc0b0\uc9c1\uac70\ub798\uc7a5\ud130 \ub0b4","latitude":33.46956,"longtitude":126.360019},{"address":"\uc81c\uc8fc\ud2b9\ubcc4\uc790\uce58\ub3c4 \uc81c\uc8fc\uc2dc \uc560\uc6d4\uc74d \uc2e0\uc5c4706","location":"\ub9ac\uc0ac\ubb34\uc18c\uc785\uad6c","latitude":33.472672,"longtitude":126.372911},{"address":"\uc81c\uc8fc\ud2b9\ubcc4\uc790\uce58\ub3c4 \uc81c\uc8fc\uc2dc \uc560\uc6d4\uc74d \uc2e0\uc5c4753","location":"\uad6c\uc5c4\ucd08\ub4b7\ud3b8","latitude":33.472805,"longtitude":126.374134},{"address":"\uc81c\uc8fc\ud2b9\ubcc4\uc790\uce58\ub3c4 \uc81c\uc8fc\uc2dc \uc560\uc6d4\uc74d \uc2e0\uc5c4786-1","location":"\ub178\uc778\ud68c\uad00\uc55e","latitude":33.473868,"longtitude":126.373078},{"address":"\uc81c\uc8fc\ud2b9\ubcc4\uc790\uce58\ub3c4 \uc81c\uc8fc\uc2dc \uc560\uc6d4\uc74d \uc2e0\uc5c4814-3","location":"\uba85\ubcf4\ube4c\ub77c \uc55e \ubb34\ub8cc\uc8fc\ucc28\uc7a5","latitude":33.475207,"longtitude":126.372986},{"address":"\uc81c\uc8fc\ud2b9\ubcc4\uc790\uce58\ub3c4 \uc81c\uc8fc\uc2dc \uc560\uc6d4\uc74d \uc2e0\uc5c4\ub9ac 851","location":"\uae08\uc815\ub204\ub9ac\ube4c \uadfc\ucc98","latitude":33.476336,"longtitude":126.372567},{"address":"\uc81c\uc8fc\ud2b9\ubcc4\uc790\uce58\ub3c4 \uc81c\uc8fc\uc2dc \uc560\uc6d4\uc74d \uc2e0\uc5c41231-1 \uc11c\uce21 \ub3c4\ub85c\uc548","location":"\uce60\uc131\uad50\ud1b5\uadfc\ubc29","latitude":33.472738,"longtitude":126.370549},{"address":"\uc81c\uc8fc\ud2b9\ubcc4\uc790\uce58\ub3c4 \uc81c\uc8fc\uc2dc \uc560\uc6d4\uc74d \uc2e0\uc5c4\ub9ac 1211-1","location":"\uc0c8\uac00\ub984","latitude":33.474751,"longtitude":126.370961},{"address":"\uc81c\uc8fc\ud2b9\ubcc4\uc790\uce58\ub3c4 \uc81c\uc8fc\uc2dc \uc560\uc6d4\uc74d \ud61c\uc131\uc0e4\ub974\ube4c(\uc911\uc5c4\uc5483\uae3813)  \ubd81\uce21 \ucf54\ub108","location":"\uc81c\uc8fc\ud2b9\ubcc4\uc790\uce58\ub3c4 \uc81c\uc8fc\uc2dc \uc560\uc6d4\uc74d \ud61c\uc131\uc0e4\ub974\ube4c(\uc911\uc5c4\uc5483\uae3813)  \ubd81\uce21 \ucf54\ub108","latitude":33.475563,"longtitude":126.372119},{"address":"\uc81c\uc8fc\ud2b9\ubcc4\uc790\uce58\ub3c4 \uc81c\uc8fc\uc2dc \uc560\uc6d4\uc74d \uad6c\uc5c4\uae389\uc606","location":"\ub300\uc2e0\ube4c\ub77c\uc606","latitude":33.475338,"longtitude":126.375934},{"address":"\uc81c\uc8fc\ud2b9\ubcc4\uc790\uce58\ub3c4 \uc81c\uc8fc\uc2dc \uc560\uc6d4\uc74d \uad6c\uc5c41103-1","location":"\ud574\uc624\ub984\uac00\ub294\uae38","latitude":33.476628,"longtitude":126.377057},{"address":"\uc81c\uc8fc\ud2b9\ubcc4\uc790\uce58\ub3c4 \uc81c\uc8fc\uc2dc \uc560\uc6d4\uc74d \uc911\uad6c\uc5c4\uae38 39 \ubd81\ucabd","location":"\uad6c\uc5c4\uc815\uc790 \uc606","latitude":33.477229,"longtitude":126.379482},{"address":"\uc81c\uc8fc\ud2b9\ubcc4\uc790\uce58\ub3c4 \uc81c\uc8fc\uc2dc \uc560\uc6d4\uc74d \uad6c\uc5c4\ub3d91\uae3834(\ud574\uc624\ub984\uc5b4\ub9b0\uc774\uc9d1) \uc606","location":"\uad6c\uc5c4\ub9ac 873-1 \uc784 \uc138\uac08\ub798 \uae38","latitude":33.477229,"longtitude":126.379482},{"address":"\uc81c\uc8fc\ud2b9\ubcc4\uc790\uce58\ub3c4 \uc81c\uc8fc\uc2dc \uc560\uc6d4\uc74d \uad6c\uc5c44\uae3848","location":"\ub3cc\ube4c\ub808\uc2dd\ub2f9\uc55e","latitude":33.483658,"longtitude":126.377516},{"address":"\uc81c\uc8fc\ud2b9\ubcc4\uc790\uce58\ub3c4 \uc81c\uc8fc\uc2dc \uc560\uc6d4\uc74d \uc77c\uc8fc\uc11c\ub85c6798","location":"\uc18c\ub9dd\ube4c\ub77c \uc606 \uace8\ubaa9","latitude":33.47467,"longtitude":126.378085},{"address":"\uc81c\uc8fc\ud2b9\ubcc4\uc790\uce58\ub3c4 \uc81c\uc8fc\uc2dc \uc560\uc6d4\uc74d \uad6c\uc5c4\ub0a8\uae38 3","location":"\ub9cc\ubbf8\uc2dd\ud488 \ub4a4\ud3b8","latitude":null,"longtitude":null},{"address":"\uc81c\uc8fc\ud2b9\ubcc4\uc790\uce58\ub3c4 \uc81c\uc8fc\uc2dc \uc560\uc6d4\uc74d \uc2e0\uc6a9\ub85c142","location":"\ub9ac\uc0ac\ubb34\uc18c \uc55e","latitude":33.459094,"longtitude":126.369367},{"address":"\uc81c\uc8fc\ud2b9\ubcc4\uc790\uce58\ub3c4 \uc81c\uc8fc\uc2dc \uc560\uc6d4\uc74d \uc2e0\uc5c4\ub9ac1728-1","location":"\uc6a9\ud7652\uae382 \ub9de\uc740\ud3b8 \ubb34\ub8cc\uc8fc\ucc28\uc7a5","latitude":33.46196,"longtitude":126.368445},{"address":"\uc81c\uc8fc\ud2b9\ubcc4\uc790\uce58\ub3c4 \uc81c\uc8fc\uc2dc \uc560\uc6d4\uc74d \uc2e0\uc5c4\ub9ac1724-1","location":"\ubb34\ub8cc\uc8fc\ucc28\uc7a5 \uc11c\uce21 \uc0bc\uac70\ub9ac","latitude":33.462135,"longtitude":126.367032},{"address":"\uc81c\uc8fc\ud2b9\ubcc4\uc790\uce58\ub3c4 \uc81c\uc8fc\uc2dc \uc560\uc6d4\uc74d \uc6a9\ud7652\uae3839","location":"\uc6a9\ud765\ub9ac \ud5a5\uae30\ub9c8\uc744 \uc790\uc5f0\uccb4\ud5d8\uc7a5","latitude":33.460393,"longtitude":126.366495},{"address":"\uc81c\uc8fc\ud2b9\ubcc4\uc790\uce58\ub3c4 \uc81c\uc8fc\uc2dc \uc560\uc6d4\uc74d \uc2e0\uc5c4\ub9ac1796-1","location":"\uc6a9\ud7656\uae38\uc785\uad6c \uc6a9\ud765\uc0c1\ub3d9 \ubc84\uc2a4\uc815\ub958\uc7a5 \ub9de\uc740\ud3b8","latitude":33.45601,"longtitude":126.369733},{"address":"\uc81c\uc8fc\ud2b9\ubcc4\uc790\uce58\ub3c4 \uc81c\uc8fc\uc2dc \uc560\uc6d4\uc74d \uc2e0\uc5c4\ub9ac1913-3","location":"\uc6a9\ud765\uc785\uad6c \ubd81\uce21 \uc0bc\uac70\ub9ac","latitude":33.454529,"longtitude":126.370432},{"address":"\uc81c\uc8fc\ud2b9\ubcc4\uc790\uce58\ub3c4 \uc81c\uc8fc\uc2dc \uc560\uc6d4\uc74d \ud558\uadc02\uae38 31","location":"\uc724\uc815\ube4c\ub9ac\uc9c0 \uc11c\uce21","latitude":33.48898,"longtitude":126.415653},{"address":"\uc81c\uc8fc\ud2b9\ubcc4\uc790\uce58\ub3c4 \uc81c\uc8fc\uc2dc \uc560\uc6d4\uc74d \ud558\uadc012\uae38 36","location":"\ub3d9\uadc0\uc5b4\ucd0c\uacc4\ud69f\uc9d1 \ub3d9\uce21","latitude":33.487177,"longtitude":126.408888},{"address":"\uc81c\uc8fc\ud2b9\ubcc4\uc790\uce58\ub3c4 \uc81c\uc8fc\uc2dc \uc560\uc6d4\uc74d \ud558\uadc010\uae38 17","location":"\ub9ac\uc0ac\ubb34\uc18c\ubd81\uce21","latitude":33.486867,"longtitude":126.41029},{"address":"\uc81c\uc8fc\ud2b9\ubcc4\uc790\uce58\ub3c4 \uc81c\uc8fc\uc2dc \uc560\uc6d4\uc74d \ube44\ubc14\ub9ac\uc9ec\ubf55(\ud558\uadc03\uae38 35)\uc606","location":"\ud558\uadc01\ub9ac 123-10\ucc28","latitude":33.486157,"longtitude":126.415872},{"address":"\uc81c\uc8fc\ud2b9\ubcc4\uc790\uce58\ub3c4 \uc81c\uc8fc\uc2dc \uc560\uc6d4\uc74d \ud558\uadc012\uae38 22","location":"\ub3d9\uadc0\uc5b4\ucd0c\uacc4\ud69f\uc9d1 \uc55e","latitude":33.486059,"longtitude":126.408706},{"address":"\uc81c\uc8fc\ud2b9\ubcc4\uc790\uce58\ub3c4 \uc81c\uc8fc\uc2dc \uc560\uc6d4\uc74d \ud558\uadc0\ub3d9\ub0a83\uae3833","location":"\ud558\uadc0\uc77c\ucd08\ub4f1\ud559\uad50 \uc606 \ubb34\ub8cc\uc8fc\ucc28\uc7a5","latitude":33.483841,"longtitude":126.414349},{"address":"\uc81c\uc8fc\ud2b9\ubcc4\uc790\uce58\ub3c4 \uc81c\uc8fc\uc2dc \uc560\uc6d4\uc74d \ud558\uadc0\ub3d9\ub0a81\uae38 61","location":"\ub3d9\uadc0\uce74\uc13c\ud130 \uadfc\ucc98","latitude":33.486871,"longtitude":126.418405},{"address":"\uc81c\uc8fc\ud2b9\ubcc4\uc790\uce58\ub3c4 \uc81c\uc8fc\uc2dc \uc560\uc6d4\uc74d \uc77c\uc8fc\uc11c\ub85c 7219-1 \uace0\uc6b4\uac01\ud39c\uc158 \ub3d9\uce21","location":"\ud558\uadc01\ub9ac 271-4 \ub3c4\ub85c","latitude":33.489607,"longtitude":126.419119},{"address":"\uc81c\uc8fc\ud2b9\ubcc4\uc790\uce58\ub3c4 \uc81c\uc8fc\uc2dc \uc560\uc6d4\uc74d \ud558\uadc0 7\uae38 30-3","location":"\ub9dd\uace0\ub808\uc774\uae38\uac74\ub108\ud3b8","latitude":33.484417,"longtitude":126.416778},{"address":"\uc81c\uc8fc\ud2b9\ubcc4\uc790\uce58\ub3c4 \uc81c\uc8fc\uc2dc \uc560\uc6d4\uc74d \ud558\uadc01\uae38 50","location":"\ubb18\uc5f0\uc0ac \uc8fc\ubcc0","latitude":33.484144,"longtitude":126.419846},{"address":"\uc81c\uc8fc\ud2b9\ubcc4\uc790\uce58\ub3c4 \uc81c\uc8fc\uc2dc \uc560\uc6d4\uc74d \ud558\uadc01\ub9ac 238-4","location":"\uc5b4\ub9b0\uc774\uacf5\uc6d0 \ub0a8\uce21\uc8fc\ucc28\uc7a5","latitude":33.483122,"longtitude":126.415169},{"address":"\uc81c\uc8fc\ud2b9\ubcc4\uc790\uce58\ub3c4 \uc81c\uc8fc\uc2dc \uc560\uc6d4\uc74d \ud558\uadc05\uae38 2-1 \ubd81\ucabd","location":"\ubc14\uae00\ubc14\uae00\uc2dd\ub2f9 \uc8fc\ubcc0","latitude":33.487357,"longtitude":126.416297},{"address":"\uc81c\uc8fc\ud2b9\ubcc4\uc790\uce58\ub3c4 \uc81c\uc8fc\uc2dc \uc560\uc6d4\uc74d \ud558\uadc01\ub9ac 159","location":"\ud558\uadc0\uc77c\ucd08\ub4f1\ud559\uad50 \uc8fc\ubcc0","latitude":33.482744,"longtitude":126.414553},{"address":"\uc81c\uc8fc\ud2b9\ubcc4\uc790\uce58\ub3c4 \uc81c\uc8fc\uc2dc \uc560\uc6d4\uc74d \ud558\uadc010\uae38 56","location":"\ud6c4\uac70\ud504\ub77c\uc774\ube57\ud39c\uc158 \uc8fc\ubcc0","latitude":33.489075,"longtitude":126.411404},{"address":"\uc81c\uc8fc\ud2b9\ubcc4\uc790\uce58\ub3c4 \uc81c\uc8fc\uc2dc \uc560\uc6d4\uc74d \ud558\uadc010\uae38 33","location":"\uc548\uc131\uc804\uae30\uc55e\ucabd","latitude":33.488142,"longtitude":126.409814},{"address":"\uc81c\uc8fc\ud2b9\ubcc4\uc790\uce58\ub3c4 \uc81c\uc8fc\uc2dc \uc560\uc6d4\uc74d \ud558\uadc014\uae38 3-10","location":"\uc138\ud55c\ube4c\ub77c \uc55e\ucabd","latitude":33.484397,"longtitude":126.406808},{"address":"\uc81c\uc8fc\ud2b9\ubcc4\uc790\uce58\ub3c4 \uc81c\uc8fc\uc2dc \uc560\uc6d4\uc74d \ud558\uadc0\ub85c 17\uae38 20","location":"\uba85\ubcf4\ube4c\ub77c\uac74\ub108\ud3b8 100m","latitude":33.480984,"longtitude":126.407155},{"address":"\uc81c\uc8fc\ud2b9\ubcc4\uc790\uce58\ub3c4 \uc81c\uc8fc\uc2dc \uc560\uc6d4\uc74d \ud558\uadc0\ub85c 115-5","location":"\uc120\uc9c4\uc885\ud569\uac74\ucd95 \uc606","latitude":33.484251,"longtitude":126.407919},{"address":"\uc81c\uc8fc\ud2b9\ubcc4\uc790\uce58\ub3c4 \uc81c\uc8fc\uc2dc \uc560\uc6d4\uc74d \ud558\uad11\ub85c208","location":"\uc608\ud3c9\uad50\ud68c \uc8fc\ubcc0","latitude":33.469544,"longtitude":126.419446},{"address":"\uc81c\uc8fc\ud2b9\ubcc4\uc790\uce58\ub3c4 \uc81c\uc8fc\uc2dc \uc560\uc6d4\uc74d \uc77c\uc8fc\uc11c\ub85c 7217","location":"\uace0\ub4f1\uc5b4\uc308\ubc25\uac00\uac8c","latitude":33.489043,"longtitude":126.418983},{"address":"\uc81c\uc8fc\ud2b9\ubcc4\uc790\uce58\ub3c4 \uc81c\uc8fc\uc2dc \uc560\uc6d4\uc74d \ud558\uadc0\ub85c23\uae38 17-1","location":"\ud558\uadc02\ub9ac\uc0ac\ubb34\uc18c\uc8fc\ucc28\uc7a5","latitude":33.479182,"longtitude":126.403526},{"address":"\uc81c\uc8fc\ud2b9\ubcc4\uc790\uce58\ub3c4 \uc81c\uc8fc\uc2dc \uc560\uc6d4\uc74d \ud558\uadc0\ub85c21\uae38 13-1","location":"\uc0c8\ub9c8\uc744\uae08\uace0 \ubd81\uce21","latitude":33.481117,"longtitude":126.404682},{"address":"\uc81c\uc8fc\ud2b9\ubcc4\uc790\uce58\ub3c4 \uc81c\uc8fc\uc2dc \uc560\uc6d4\uc74d \ud558\uadc0\ubbf8\uc218\ub3d9\uae38 30","location":"\ud558\uadc02\ub9ac 1752-5 (\uadf8\ub9b0\ub9c8\ud2b8 \uc55e)","latitude":33.480462,"longtitude":126.400994},{"address":"\uc81c\uc8fc\ud2b9\ubcc4\uc790\uce58\ub3c4 \uc81c\uc8fc\uc2dc \uc560\uc6d4\uc74d \ud558\uadc0\ub85c85-5 \ub9de\uc73c\ud3b8","location":"\uace0\uc131\ucc9c \uc55e","latitude":33.4824208,"longtitude":126.405395},{"address":"\uc81c\uc8fc\ud2b9\ubcc4\uc790\uce58\ub3c4 \uc81c\uc8fc\uc2dc \uc560\uc6d4\uc74d \ud558\uadc0\ub85c 72","location":"\uc784\ub2db\ubb3c \uc55e\n\uc0c8\ub9c8\uc744\uae08\uace0 \ub9de\uc740\ud3b8","latitude":33.4812632,"longtitude":126.4048288},{"address":"\uc81c\uc8fc\ud2b9\ubcc4\uc790\uce58\ub3c4 \uc81c\uc8fc\uc2dc \uc560\uc6d4\uc74d \ud558\uadc0\ub85c 25\uae38 \uc785\uad6c","location":"\ud558\uadc02\ub9ac 3018-9 \uc18c\uc655\ucc9c \uc8fc\ucc28\uc7a5 \uc606","latitude":33.475976,"longtitude":126.4026245},{"address":"\uc81c\uc8fc\ud2b9\ubcc4\uc790\uce58\ub3c4 \uc81c\uc8fc\uc2dc \uc560\uc6d4\uc74d \uc2dc\ub4dc\ub2c8\ud638\ud154(\uac00\ubb38\ub3d9\uae384) \uc55e","location":"\ud558\uadc02\ub9ac 2594-2 \ub3c4\ub85c","latitude":33.4837855,"longtitude":126.395036},{"address":"\uc81c\uc8fc\ud2b9\ubcc4\uc790\uce58\ub3c4 \uc81c\uc8fc\uc2dc \uc560\uc6d4\uc74d \uc560\uc6d4\ud574\uc548\ub85c 857 \ub9de\uc740\ud3b8","location":"\uace0\uc6b0\ub2c8\uc2dd\ub2f9 \uc55e","latitude":33.4882602,"longtitude":126.3897125},{"address":"\uc81c\uc8fc\ud2b9\ubcc4\uc790\uce58\ub3c4 \uc81c\uc8fc\uc2dc \uc560\uc6d4\uc74d \ud558\uadc02\ub9ac 2729-1","location":"\uac00\ubb38\ub3d9\ud3ec\uad6c \ud314\uac01\uc815 \uc55e","latitude":33.4867135,"longtitude":126.392659},{"address":"\uc81c\uc8fc\ud2b9\ubcc4\uc790\uce58\ub3c4 \uc81c\uc8fc\uc2dc \uc560\uc6d4\uc74d \ubc88\ub300\ub3d9\uae38 20-1 \uc55e","location":"\ud558\uadc02\ub9ac 2988-2 \ub3c4\ub85c","latitude":33.4768104,"longtitude":126.3917866},{"address":"\uc81c\uc8fc\ud2b9\ubcc4\uc790\uce58\ub3c4 \uc81c\uc8fc\uc2dc \uc560\uc6d4\uc74d \ud559\uc6d0\ub3d9\uae384(\uc601\uc77c\uc6b4\uc218) \uc55e","location":"\ud558\uadc02\ub9ac 3020 \ub3c4\ub85c \ud401\ub0ad\uc544\ub798","latitude":33.4732691,"longtitude":126.3990252},{"address":"\uc81c\uc8fc\ud2b9\ubcc4\uc790\uce58\ub3c4 \uc81c\uc8fc\uc2dc \uc560\uc6d4\uc74d \ud559\uc6d0\ub3d9\uae38 30\uc55e","location":"\ud559\uc6d0\ub3d9\uae38 30\uc55e","latitude":33.4732251,"longtitude":126.3991777},{"address":"\uc81c\uc8fc\ud2b9\ubcc4\uc790\uce58\ub3c4 \uc81c\uc8fc\uc2dc \uc560\uc6d4\uc74d \uac1c\uc218\uc804\uae38 23 \uc55e","location":"\uc81c\uc8fc\ud2b9\ubcc4\uc790\uce58\ub3c4 \uc81c\uc8fc\uc2dc \uc560\uc6d4\uc74d \uac1c\uc218\uc804\uae38 23 \uc55e","latitude":null,"longtitude":null},{"address":"\uc81c\uc8fc\ud2b9\ubcc4\uc790\uce58\ub3c4 \uc81c\uc8fc\uc2dc \uc560\uc6d4\uc74d \ub2f5\ub3d93\uae38 18(\ud0d0\ub77c\ub178\uc778\ubcf5\uc9c0\uc13c\ud130) \uc55e","location":"\ud558\uadc02\ub9ac 1228-3 \ub3c4\ub85c","latitude":33.4765445,"longtitude":126.4067248},{"address":"\uc81c\uc8fc\ud2b9\ubcc4\uc790\uce58\ub3c4 \uc81c\uc8fc\uc2dc \uc560\uc6d4\uc74d \ud558\uadc0\ub85c23\uae38 58 \ub9de\uc740\ud3b8","location":"\ud558\uadc02\ub9ac 2101-3 \ub3c4\ub85c","latitude":33.4750434,"longtitude":126.4037831},{"address":"\uc81c\uc8fc\ud2b9\ubcc4\uc790\uce58\ub3c4 \uc81c\uc8fc\uc2dc \uc560\uc6d4\uc74d \ud558\uadc026\uae38 4-1","location":"\uad50\ud68c\uad50\uc721\uc6d0","latitude":33.478853,"longtitude":126.4087298},{"address":"\uc81c\uc8fc\ud2b9\ubcc4\uc790\uce58\ub3c4 \uc81c\uc8fc\uc2dc \uc560\uc6d4\uc74d \uc0c1\uadc0\ub9ac 528-4 \uc55e \ub3c4\ub85c","location":"\ub9ac\uc0ac\ubb34\uc18c \uc55e","latitude":33.4727819,"longtitude":126.4089365},{"address":"\uc81c\uc8fc\ud2b9\ubcc4\uc790\uce58\ub3c4 \uc81c\uc8fc\uc2dc \uc560\uc6d4\uc74d \uc0c1\uadc0\ub9ac 257-4","location":"\ub3d9\ub3d9\ub124","latitude":33.4737191,"longtitude":126.4115066},{"address":"\uc81c\uc8fc\ud2b9\ubcc4\uc790\uce58\ub3c4 \uc81c\uc8fc\uc2dc \uc560\uc6d4\uc74d \uc560\uc6d4\uc74d \ud56d\ubabd\ub85c 95","location":"\ubc18\uc11d","latitude":33.475973,"longtitude":126.4100315},{"address":"\uc81c\uc8fc\ud2b9\ubcc4\uc790\uce58\ub3c4 \uc81c\uc8fc\uc2dc \uc560\uc6d4\uc74d \uc0c1\uadc0\ub9ac 1357","location":"\uc18c\uc575\ub3d9","latitude":33.4641625,"longtitude":126.4023766},{"address":"\uc81c\uc8fc\ud2b9\ubcc4\uc790\uce58\ub3c4 \uc81c\uc8fc\uc2dc \uc560\uc6d4\uc74d \uc0c1\uadc0\ub9ac 241-2","location":"\uacbd\ucc30\uc11c\uad00\uc0ac","latitude":33.474905,"longtitude":126.4122391},{"address":"\uc81c\uc8fc\ud2b9\ubcc4\uc790\uce58\ub3c4 \uc81c\uc8fc\uc2dc \uc560\uc6d4\uc74d \ud558\uc18c\ub85c163","location":"\uc218\uc0b0\ub9ac\uc0ac\ubb34\uc18c \uc606","latitude":33.4669663,"longtitude":126.3933044},{"address":"\uc81c\uc8fc\ud2b9\ubcc4\uc790\uce58\ub3c4 \uc81c\uc8fc\uc2dc \uc560\uc6d4\uc74d \ud558\uc18c\ub85c136(\uc218\uc0b0\ub9ac531-3\ub3c4)","location":"\ud558\uc18c\ub85c136\ub3c4\ub85c","latitude":33.4695247,"longtitude":126.3942662},{"address":"\uc81c\uc8fc\ud2b9\ubcc4\uc790\uce58\ub3c4 \uc81c\uc8fc\uc2dc \uc560\uc6d4\uc74d \uc5c4\uc218\ub85c165(\uacf5\uc194\ube4c\ub77c\uc55e)","location":"\uc5c4\uc218\ub85c165","latitude":33.4687542,"longtitude":126.3898399},{"address":"\uc81c\uc8fc\ud2b9\ubcc4\uc790\uce58\ub3c4 \uc81c\uc8fc\uc2dc \uc560\uc6d4\uc74d \uc2e0\uc131\uac10\uade4\uc120\uacfc\uc7a5 \uce21\ubcc0","location":"\uc5c4\uc218\ub85c103","latitude":33.4687253,"longtitude":126.3841575},{"address":"\uc81c\uc8fc\ud2b9\ubcc4\uc790\uce58\ub3c4 \uc81c\uc8fc\uc2dc \uc560\uc6d4\uc74d \uc608\uc6d0\ub85c103 \uace0\uc6b4\ub3cc\uc5c5\uccb4\uc606 \uacf5\ud130","location":"\uc0c1\uadc0\ub9ac 1572-2","latitude":33.4604354,"longtitude":126.3982447},{"address":"\uc81c\uc8fc\ud2b9\ubcc4\uc790\uce58\ub3c4 \uc81c\uc8fc\uc2dc \uc560\uc6d4\uc74d \ubc88\ub300\ub3d9\uae38 62","location":"\uc218\uc0b0\ub9ac 673-1","latitude":null,"longtitude":null},{"address":"\uc81c\uc8fc\ud2b9\ubcc4\uc790\uce58\ub3c4 \uc81c\uc8fc\uc2dc \uc560\uc6d4\uc74d \uc18c\uae38\ubc84\uc2a4\uc2b9\ucc28\ub300 \uc55e","location":"\uc7a5\uc804\ub9ac 1638-2","latitude":33.4413018,"longtitude":126.3791764},{"address":"\uc81c\uc8fc\ud2b9\ubcc4\uc790\uce58\ub3c4 \uc81c\uc8fc\uc2dc \uc560\uc6d4\uc74d \uc18c\uae38\uc6b4\ub3d9\uc7a5 \uc704\ucabd \uc0bc\uac70\ub9ac","location":"\uc18c\uae38\ub9ac 793-3 \ub3c4\ub85c","latitude":33.4346431,"longtitude":126.3794615},{"address":"\uc81c\uc8fc\ud2b9\ubcc4\uc790\uce58\ub3c4 \uc81c\uc8fc\uc2dc \uc560\uc6d4\uc74d \uc7a5\uc804\ub9ac453-2","location":"\uc131\ub355\uc288\ud37c\uc606(\uc7a5\uc8044\uae38\uc785\uad6c)","latitude":33.450733,"longtitude":126.388327},{"address":"\uc81c\uc8fc\ud2b9\ubcc4\uc790\uce58\ub3c4 \uc81c\uc8fc\uc2dc \uc560\uc6d4\uc74d \uc7a5\uc804\ub9ac386-1 \ub300","location":"\uc7a5\uc804\ubcf4\uac74\uc18c(\ud558\uc18c\ub85c353) \ubd81\uce21","latitude":33.451264,"longtitude":126.390944},{"address":"\uc81c\uc8fc\ud2b9\ubcc4\uc790\uce58\ub3c4 \uc81c\uc8fc\uc2dc \uc560\uc6d4\uc74d \uc7a5\uc8044\uae3814 \uc0ac\uac70\ub9ac","location":"\uc7a5\uc804\ub9ac465-1","latitude":33.449664,"longtitude":126.388233},{"address":"\uc81c\uc8fc\ud2b9\ubcc4\uc790\uce58\ub3c4 \uc81c\uc8fc\uc2dc \uc560\uc6d4\uc74d \uc720\uc218\uc554\ub9ac 1897\uc55e","location":"\ubcf4\uac74\uc18c(\uc720\uc218\uc554\ud3c9\ud654\uae3814-2)\ub9de\uc740\ud3b8","latitude":33.441132,"longtitude":126.402547},{"address":"\uc81c\uc8fc\ud2b9\ubcc4\uc790\uce58\ub3c4 \uc81c\uc8fc\uc2dc \uc560\uc6d4\uc74d \uc720\uc218\uc554\ub9ac 1042-16","location":"\uacbd\ub85c\ub2f9\uc606","latitude":33.4232823,"longtitude":126.4052429},{"address":"\uc81c\uc8fc\ud2b9\ubcc4\uc790\uce58\ub3c4 \uc81c\uc8fc\uc2dc \uc560\uc6d4\uc74d \uc720\uc218\uc554\ub9ac 2017-1\uc55e","location":"\uad11\uc0c1\ub85c 310 \ub3d9\uce21\ub3c4\ub85c","latitude":33.44319,"longtitude":126.400657},{"address":"\uc81c\uc8fc\ud2b9\ubcc4\uc790\uce58\ub3c4 \uc81c\uc8fc\uc2dc \uc560\uc6d4\uc74d \uc720\uc218\uc554\ub9ac 2580-4","location":"\uac70\ubb38\ub355\uc774","latitude":33.42949,"longtitude":126.396797},{"address":"\uc81c\uc8fc\ud2b9\ubcc4\uc790\uce58\ub3c4 \uc81c\uc8fc\uc2dc \uc560\uc6d4\uc74d \uace0\uc1316\uae38 4 \ubd80\uadfc","location":"\uc704\uce58\ud655\uc778\ud544\uc694","latitude":33.458224,"longtitude":126.41532},{"address":"\uc81c\uc8fc\ud2b9\ubcc4\uc790\uce58\ub3c4 \uc81c\uc8fc\uc2dc \uc560\uc6d4\uc74d \uace0\uc1313\uae38 10 \ubd80\uadfc","location":"\ub18d\uc0b0\ubb3c\uac04\uc774\uc9d1\ud558\uc7a5 \uc55e","latitude":33.458977,"longtitude":126.414148},{"address":"\uc81c\uc8fc\ud2b9\ubcc4\uc790\uce58\ub3c4 \uc81c\uc8fc\uc2dc \uc560\uc6d4\uc74d \uad11\uc0c1\ub85c 115 \uc785\uad6c \ub9de\uc740\ud3b8","location":"\uc194\ubca0\uc774\uc9c0\ud39c\uc158 \ub9de\uc740\ud3b8","latitude":33.446644,"longtitude":126.417589},{"address":"\uc81c\uc8fc\ud2b9\ubcc4\uc790\uce58\ub3c4 \uc81c\uc8fc\uc2dc \uc560\uc6d4\uc74d \uace0\uc131\ud734\uba3c\uc2dc\uc544 103\ub3d9 \uc606","location":"\uace0\uc131\ub9ac 1449-1","latitude":33.465395,"longtitude":126.411052},{"address":"\uc81c\uc8fc\ud2b9\ubcc4\uc790\uce58\ub3c4 \uc81c\uc8fc\uc2dc \uc560\uc6d4\uc74d \uace0\uc131\ub9ac 133-9\uc804","location":"\ub9ac\uc0ac\ubb34\uc18c \uc55e","latitude":33.434952,"longtitude":126.425617},{"address":"\uc81c\uc8fc\ud2b9\ubcc4\uc790\uce58\ub3c4 \uc81c\uc8fc\uc2dc \uc560\uc6d4\uc74d \uace0\uc131\ub0a8\uae38 101","location":"\uc6d0\uad11\uc694\uc591\uc6d0 \ub0b4","latitude":33.4286795,"longtitude":126.4307172},{"address":"\uc81c\uc8fc\ud2b9\ubcc4\uc790\uce58\ub3c4 \uc81c\uc8fc\uc2dc \uc560\uc6d4\uc74d \uad11\ub839\ub9ac 2807-3","location":"UTS\uace8\ud504\ube4c\ub9ac\uc9c0 \uc55e","latitude":33.462254,"longtitude":126.444807},{"address":"\uc81c\uc8fc\ud2b9\ubcc4\uc790\uce58\ub3c4 \uc81c\uc8fc\uc2dc \uc560\uc6d4\uc74d \uad11\ub839\ubd817\uae38 71","location":"\uad11\ub839\ucd08\uc6d0\ube4c\ub77c \uc55e","latitude":33.465402,"longtitude":126.43764},{"address":"\uc81c\uc8fc\ud2b9\ubcc4\uc790\uce58\ub3c4 \uc81c\uc8fc\uc2dc \uc560\uc6d4\uc74d \uad11\ub839\ub9ac \uc0b0 24","location":"\uad11\ub839\ub9ac \uc0b0 24","latitude":33.454543,"longtitude":126.439205},{"address":"\uc81c\uc8fc\ud2b9\ubcc4\uc790\uce58\ub3c4 \uc81c\uc8fc\uc2dc \uc560\uc6d4\uc74d \uad11\ub8398\uae38 33","location":"\uad11\ub8398\uae38 33 \uc55e","latitude":33.458,"longtitude":126.440012},{"address":"\uc81c\uc8fc\ud2b9\ubcc4\uc790\uce58\ub3c4 \uc81c\uc8fc\uc2dc \uc560\uc6d4\uc74d \uad11\ub8394\uae38  28","location":"\uad11\ub839\ucd08\ub4f1\ud559\uad50 \ud6c4\ubb38","latitude":33.459156,"longtitude":126.436053},{"address":"\uc81c\uc8fc\ud2b9\ubcc4\uc790\uce58\ub3c4 \uc81c\uc8fc\uc2dc \uc560\uc6d4\uc74d \uad11\uc131\ub85c 277","location":"\uad11\ub839\ud55c\ub9c8\uc74c\uc0c8\ub9c8\uc744\uae08\uace0 \uc8fc\ucc28\uc7a5","latitude":33.460685,"longtitude":126.436468},{"address":"\uc81c\uc8fc\ud2b9\ubcc4\uc790\uce58\ub3c4 \uc81c\uc8fc\uc2dc \uc560\uc6d4\uc74d \uad11\ub8395\uae38 18","location":"\uad11\ub8395\uae38 18\ubc88\uc9c0 \uc55e","latitude":33.462171,"longtitude":126.435722},{"address":"\uc81c\uc8fc\ud2b9\ubcc4\uc790\uce58\ub3c4 \uc81c\uc8fc\uc2dc \uc560\uc6d4\uc74d \uad11\ub8397\uae38 13 \uc606","location":"\uad11\ub8397\uae38 13 \uc606","latitude":33.462056,"longtitude":126.438276},{"address":"\uc81c\uc8fc\ud2b9\ubcc4\uc790\uce58\ub3c4 \uc81c\uc8fc\uc2dc \uc560\uc6d4\uc74d \uad11\ub839\ub9ac 1276-2","location":"\uc21c\ub450\ubb3c \uc606","latitude":33.460823,"longtitude":126.440054},{"address":"\uc81c\uc8fc\ud2b9\ubcc4\uc790\uce58\ub3c4 \uc81c\uc8fc\uc2dc \uc560\uc6d4\uc74d \uad11\ub839\ub9ac 3067-1","location":"\uad11\ub8392\ub9ac\uc0ac\ubb34\uc18c","latitude":33.449003,"longtitude":126.429518},{"address":"\uc81c\uc8fc\ud2b9\ubcc4\uc790\uce58\ub3c4 \uc81c\uc8fc\uc2dc \uc560\uc6d4\uc74d \uad11\ub839\ub9ac 2812","location":"\uc62c\ud574\ud574\uc624\ub984\ud39c\uc158","latitude":33.4490888,"longtitude":126.4295656},{"address":"\uc81c\uc8fc\ud2b9\ubcc4\uc790\uce58\ub3c4 \uc81c\uc8fc\uc2dc \uc560\uc6d4\uc74d \uad11\ub839\ud3c9\ud6543\uae3818\uc606","location":"\ud55c\ub77c\uc8fc\uc720\uc18c\uc606","latitude":33.4471602,"longtitude":126.433258},{"address":"\uc81c\uc8fc\ud2b9\ubcc4\uc790\uce58\ub3c4 \uc81c\uc8fc\uc2dc \uc560\uc6d4\uc74d \uad11\ub839\ub9ac 2615","location":"\uad00\uad11\ub300\uccb4\uc721\uad00\uc606","latitude":33.446236,"longtitude":126.433497},{"address":"\uc81c\uc8fc\ud2b9\ubcc4\uc790\uce58\ub3c4 \uc81c\uc8fc\uc2dc \uc560\uc6d4\uc74d \uad11\ub839\ub9ac 2498-1","location":"\uc720\uc815\uc5f0\ub9bd","latitude":33.451389,"longtitude":126.43289},{"address":"\uc81c\uc8fc\ud2b9\ubcc4\uc790\uce58\ub3c4 \uc81c\uc8fc\uc2dc \uc560\uc6d4\uc74d \uad11\ub839\ud3c9\ud6547\uae38 20 \uc55e","location":"\ubc84\uc12f\ub9c8\uc744","latitude":null,"longtitude":null},{"address":"\uc81c\uc8fc\ud2b9\ubcc4\uc790\uce58\ub3c4 \uc81c\uc8fc\uc2dc \uc560\uc6d4\uc74d \uad11\ub839\uc790\uc885\uae381(\ub9ac\uc0ac\ubb34\uc18c\uc606)","location":"\uad11\ub839\ub9ac 3798-16","latitude":33.4639398,"longtitude":126.4232881},{"address":"\uc81c\uc8fc\ud2b9\ubcc4\uc790\uce58\ub3c4 \uc81c\uc8fc\uc2dc \uc560\uc6d4\uc74d \uad11\ub839\uc790\uc885\uae3816 \uccad\ub144\ud68c\uc0ac\ubb34\uc2e4 \uc55e","location":"\uad11\ub839\ub9ac 3803-2","latitude":33.4649968,"longtitude":126.424023},{"address":"\uc81c\uc8fc\ud2b9\ubcc4\uc790\uce58\ub3c4 \uc81c\uc8fc\uc2dc \uc560\uc6d4\uc74d \uad11\ub839\uc790\uc885\uae3854","location":"\uad11\ub839\ub9ac 3778-4","latitude":33.4667528,"longtitude":126.4220905},{"address":"\uc81c\uc8fc\ud2b9\ubcc4\uc790\uce58\ub3c4 \uc81c\uc8fc\uc2dc \uad6c\uc88c\uc74d \uae40\ub155\ub9ac 497-4","location":"\uae40\ub155\uc131\uc138\uae30\ud574\ubcc0 \uc8fc\ucc28\uc7a5","latitude":33.556639,"longtitude":126.758906},{"address":"\uc81c\uc8fc\ud2b9\ubcc4\uc790\uce58\ub3c4 \uc81c\uc8fc\uc2dc \uad6c\uc88c\uc74d \ub9cc\uc7a5\uad74\uae38 122(\uae40\ub155\ub9ac \uc0b0 16)","location":"\uae40\ub155\ubbf8\ub85c\uacf5\uc6d0 \ub0b4\ubd80","latitude":33.53597,"longtitude":126.772169},{"address":"\uc81c\uc8fc\ud2b9\ubcc4\uc790\uce58\ub3c4 \uc81c\uc8fc\uc2dc \uad6c\uc88c\uc74d \ub9cc\uc7a5\uad74\uae38 182","location":"\ub9cc\uc7a5\uad74\uc8fc\ucc28\uc7a5","latitude":33.529039,"longtitude":126.772307},{"address":"\uc81c\uc8fc\ud2b9\ubcc4\uc790\uce58\ub3c4 \uc81c\uc8fc\uc2dc \uad6c\uc88c\uc74d \uae40\ub155\ub85c 21\uae38 12(\uae40\ub155\ub9ac 1223-5)","location":"\uae40\ub155\uc5b4\uc6b8\ub9bc\uc13c\ud130 \uc55e","latitude":33.556412,"longtitude":126.755677},{"address":"\uc81c\uc8fc\ud2b9\ubcc4\uc790\uce58\ub3c4 \uc81c\uc8fc\uc2dc \uad6c\uc88c\uc74d \uae40\ub155\ub85c18\uae38 19-1(\uae40\ub155\ub9ac 1145-79)","location":"\uc81c\uc8fc\ud2b9\ubcc4\uc790\uce58\ub3c4 \uc81c\uc8fc\uc2dc \uad6c\uc88c\uc74d \uae40\ub155\ub85c18\uae38 19-1(\uae40\ub155\ub9ac 1145-79)","latitude":33.554039,"longtitude":126.755347},{"address":"\uc81c\uc8fc\ud2b9\ubcc4\uc790\uce58\ub3c4 \uc81c\uc8fc\uc2dc \uad6c\uc88c\uc74d \uae40\ub155\ub85c17\uae38 36(\uae40\ub155\ub9ac 1267-3)","location":"\uc138\uae30\uc54c\uc880\ub140\uc27c\ud130 \uc606","latitude":33.558362,"longtitude":126.75473},{"address":"\uc81c\uc8fc\ud2b9\ubcc4\uc790\uce58\ub3c4 \uc81c\uc8fc\uc2dc \uad6c\uc88c\uc74d \uae40\ub155\ub85c17\uae38 15","location":"\uae40\ub155\uc5b4\ucd0c\uacc4\ucc3d\uace0 \uc55e","latitude":33.556473,"longtitude":126.753471},{"address":"\uc81c\uc8fc\ud2b9\ubcc4\uc790\uce58\ub3c4 \uc81c\uc8fc\uc2dc \uad6c\uc88c\uc74d \uae40\ub155\ub85c 141(\uae40\ub155\ub9ac1497-1)","location":"\uc784\ud48d\ud574\uc7a5\uad6d\uc55e","latitude":33.555388,"longtitude":126.753148},{"address":"\uc81c\uc8fc\ud2b9\ubcc4\uc790\uce58\ub3c4 \uc81c\uc8fc\uc2dc \uad6c\uc88c\uc74d \uae40\ub155\ub9ac1457(\uae40\ub155\ub85c 1\uae38 87)","location":"\uc81c\uc8fc\ud2b9\ubcc4\uc790\uce58\ub3c4 \uc81c\uc8fc\uc2dc \uad6c\uc88c\uc74d \uae40\ub155\ub9ac1457(\uae40\ub155\ub85c 1\uae38 87)","latitude":33.557295,"longtitude":126.752555},{"address":"\uc81c\uc8fc\ud2b9\ubcc4\uc790\uce58\ub3c4 \uc81c\uc8fc\uc2dc \uad6c\uc88c\uc74d \uae40\ub155\ub9ac1466-1(\uae40\ub155\ub85c 19\uae38 32)","location":"\uc81c\uc8fc\ud2b9\ubcc4\uc790\uce58\ub3c4 \uc81c\uc8fc\uc2dc \uad6c\uc88c\uc74d \uae40\ub155\ub9ac1466-1(\uae40\ub155\ub85c 19\uae38 32)","latitude":33.556582,"longtitude":126.752551},{"address":"\uc81c\uc8fc\ud2b9\ubcc4\uc790\uce58\ub3c4 \uc81c\uc8fc\uc2dc \uad6c\uc88c\uc74d \uae40\ub155\ub9ac 1754","location":"\uae40\ub155\uc911 \ub3d9\ucabd(\ub3c4\ub85c\ubcc0\uc704\uce58)","latitude":33.553055,"longtitude":126.752113},{"address":"\uc81c\uc8fc\ud2b9\ubcc4\uc790\uce58\ub3c4 \uc81c\uc8fc\uc2dc \uad6c\uc88c\uc74d \uae40\ub155\ub85c 118-20(\uae40\ub155\ub9ac 1726-2)","location":"\uae40\ub155\uc911\ud559\uad50 \uc548","latitude":33.552135,"longtitude":126.750505},{"address":"\uc81c\uc8fc\ud2b9\ubcc4\uc790\uce58\ub3c4 \uc81c\uc8fc\uc2dc \uad6c\uc88c\uc74d \uae40\ub155\ub85c 118(\uae40\ub155\ub9ac 1697-4)","location":"\ub3d9\ubd80\ubcf4\uac74\uc18c \uc55e","latitude":33.554739,"longtitude":126.750707},{"address":"\uc81c\uc8fc\ud2b9\ubcc4\uc790\uce58\ub3c4 \uc81c\uc8fc\uc2dc \uad6c\uc88c\uc74d \uae40\ub155\ub85c 11\uae38 14-1","location":"\uae40\ub155\ucd08\ub4f1\ud559\uad50 \ub4a4","latitude":33.555557,"longtitude":126.749954},{"address":"\uc81c\uc8fc\ud2b9\ubcc4\uc790\uce58\ub3c4 \uc81c\uc8fc\uc2dc \uad6c\uc88c\uc74d \ud574\ub9de\uc774\ud574\uc548\ub85c 200(\uae40\ub155\ub9ac 9-2)","location":"\ud55c\uad6d\uc5d0\ub108\uc9c0\uae30\uc220\uc5f0\uad6c\uc6d0\n\uc81c\uc8fc\uae00\ub85c\ubc8c\uc5f0\uad6c\uc13c\ud130 \ub0b4\ubd80","latitude":33.564371,"longtitude":126.772603},{"address":"\uc81c\uc8fc\ud2b9\ubcc4\uc790\uce58\ub3c4 \uc81c\uc8fc\uc2dc \uad6c\uc88c\uc74d \uae40\ub155\ub85c9\uae38 7","location":"\uae40\ub155\uc5b4\ucd0c\uacc4\ub85c \ub4e4\uc5b4\uac00\ub294\uae38","latitude":33.554666,"longtitude":126.748855},{"address":"\uc81c\uc8fc\ud2b9\ubcc4\uc790\uce58\ub3c4 \uc81c\uc8fc\uc2dc \uad6c\uc88c\uc74d \uae40\ub155\ub85c93(\uae40\ub155\ub9ac 2216)","location":"\uc601\uc6d4\uac08\ube44 \uc606","latitude":33.554393,"longtitude":126.748115},{"address":"\uc81c\uc8fc\ud2b9\ubcc4\uc790\uce58\ub3c4 \uc81c\uc8fc\uc2dc \uad6c\uc88c\uc74d \uc77c\uc8fc\ub3d9\ub85c 2045(\uae40\ub155\ub9ac 1811)","location":"\uae40\ub155\ub9ac \uc0ac\ubb34\uc18c\ub4a4","latitude":33.551681,"longtitude":126.74893},{"address":"\uc81c\uc8fc\ud2b9\ubcc4\uc790\uce58\ub3c4 \uc81c\uc8fc\uc2dc \uad6c\uc88c\uc74d \uae40\ub155\ub85c 8\uae38 14(\uae40\ub155\ub9ac 1795-1)","location":"\uae40\ub155\uacbd\ub178\ub2f9","latitude":33.553249,"longtitude":126.748632},{"address":"\uc81c\uc8fc\ud2b9\ubcc4\uc790\uce58\ub3c4 \uc81c\uc8fc\uc2dc \uad6c\uc88c\uc74d \uae40\ub155\ub9ac 3678","location":"\uc601\ubc30\uc774\uc6a9\uc6d0 \uc55e","latitude":33.555862,"longtitude":126.74773},{"address":"\uc81c\uc8fc\ud2b9\ubcc4\uc790\uce58\ub3c4 \uc81c\uc8fc\uc2dc \uad6c\uc88c\uc74d \uae40\ub155\ud56d3\uae38 7(\uae40\ub155\ub9ac 3686)","location":"\uae40\ub155\uc11c\uc6b4\ud0c0\uc6b4\uc55e","latitude":33.556215,"longtitude":126.747118},{"address":"\uc81c\uc8fc\ud2b9\ubcc4\uc790\uce58\ub3c4 \uc81c\uc8fc\uc2dc \uad6c\uc88c\uc74d \uae40\ub155\ub9ac 3722\ubc88\uc9c0 \uc55e","location":"\uc6b4\ub3d9\uae30\uad6c\uc55e","latitude":33.557102,"longtitude":126.747398},{"address":"\uc81c\uc8fc\ud2b9\ubcc4\uc790\uce58\ub3c4 \uc81c\uc8fc\uc2dc \uad6c\uc88c\uc74d \uae40\ub155\ud56d3\uae38 12-29(\uae40\ub155\ub9ac 3994)","location":"\uc81c\uc8fc\ud2b9\ubcc4\uc790\uce58\ub3c4 \uc81c\uc8fc\uc2dc \uad6c\uc88c\uc74d \uae40\ub155\ud56d3\uae38 12-29(\uae40\ub155\ub9ac 3994)","latitude":33.557566,"longtitude":126.747232},{"address":"\uc81c\uc8fc\ud2b9\ubcc4\uc790\uce58\ub3c4 \uc81c\uc8fc\uc2dc \uad6c\uc88c\uc74d \uae40\ub155\ud56d1\uae38 32","location":"\ud63c\ub514\uc5b4\uc6b8\ub801","latitude":33.557766,"longtitude":126.744367},{"address":"\uc81c\uc8fc\ud2b9\ubcc4\uc790\uce58\ub3c4 \uc81c\uc8fc\uc2dc \uad6c\uc88c\uc74d \uae40\ub155\ud56d1\uae38 50-13","location":"\ud574\uc591\uacbd\ube44\uc548\uc804\uc13c\ud130","latitude":33.55817,"longtitude":126.740336},{"address":"\uc81c\uc8fc\ud2b9\ubcc4\uc790\uce58\ub3c4 \uc81c\uc8fc\uc2dc \uad6c\uc88c\uc74d \uae40\ub155\ub9ac 3959 \ub9de\uc740\ud3b8","location":"\uae40\ub155\ub9ac \ubc31\ub828\uc0ac \ub9de\uc740\ud3b8","latitude":33.555261,"longtitude":126.74412},{"address":"\uc81c\uc8fc\ud2b9\ubcc4\uc790\uce58\ub3c4 \uc81c\uc8fc\uc2dc \uad6c\uc88c\uc74d \uae40\ub155\ub9ac 497-6","location":"\uad6c\uc88c\uccb4\uc721\uad00 \uc8fc\ucc28\uc7a5","latitude":33.553559,"longtitude":126.744601},{"address":"\uc81c\uc8fc\ud2b9\ubcc4\uc790\uce58\ub3c4 \uc81c\uc8fc\uc2dc \uad6c\uc88c\uc74d \uae40\ub155\ub9ac 3100","location":"\ube68\uac04\ud48d\ucc28\ud39c\uc158 \uc55e","latitude":33.54842,"longtitude":126.742776},{"address":"\uc81c\uc8fc\ud2b9\ubcc4\uc790\uce58\ub3c4 \uc81c\uc8fc\uc2dc \uad6c\uc88c\uc74d \uad6c\uc88c\ud574\uc548\ub85c 229-16","location":"\uae40\ub155\uc694\ud2b8\ud22c\uc5b4","latitude":33.558094,"longtitude":126.737417},{"address":"\uc81c\uc8fc\ud2b9\ubcc4\uc790\uce58\ub3c4 \uc81c\uc8fc\uc2dc \uad6c\uc88c\uc74d \uae40\ub155\ub9ac 4402","location":"\uc120\uc720\uc5b4\ub9b0\uc774\uc9d1","latitude":33.555551,"longtitude":126.735223},{"address":"\uc81c\uc8fc\ud2b9\ubcc4\uc790\uce58\ub3c4 \uc81c\uc8fc\uc2dc \uad6c\uc88c\uc74d \uc77c\uc8fc\ub3d9\ub85c 1853(\uae40\ub155\ub9ac 5974)","location":"\ud53c\ub178&\ud0a4\uc624","latitude":33.55618,"longtitude":126.729668},{"address":"\uc81c\uc8fc\ud2b9\ubcc4\uc790\uce58\ub3c4 \uc81c\uc8fc\uc2dc \uad6c\uc88c\uc74d \ub3d9\uae40\uae38 150","location":"\uc18c\ub9dd\uc694\uc591\uc6d0","latitude":33.547313,"longtitude":126.731774},{"address":"\uc81c\uc8fc\ud2b9\ubcc4\uc790\uce58\ub3c4 \uc81c\uc8fc\uc2dc \uad6c\uc88c\uc74d \uae40\ub155\ub9ac 5552(\ub3d9\uae40\uae38 162-20)","location":"\uc708\ub4dc\uc2a4\ud1a4\ube44\uce58 \ud39c\uc158","latitude":33.545875,"longtitude":126.731655},{"address":"\uc81c\uc8fc\ud2b9\ubcc4\uc790\uce58\ub3c4 \uc81c\uc8fc\uc2dc \uad6c\uc88c\uc74d \uae40\ub155\ub85c1\uae3875 \uc624\ub978\ucabd","location":"\uc81c\uc8fc\ud2b9\ubcc4\uc790\uce58\ub3c4 \uc81c\uc8fc\uc2dc \uad6c\uc88c\uc74d \uae40\ub155\ub85c1\uae3875 \uc624\ub978\ucabd","latitude":null,"longtitude":null},{"address":"\uc81c\uc8fc\ud2b9\ubcc4\uc790\uce58\ub3c4 \uc81c\uc8fc\uc2dc \uad6c\uc88c\uc74d \uc6d4\ub355\ub85c 522(\ub355\ucc9c\ub9ac 311)","location":"\ub355\ucc9c\uad50\ud68c","latitude":33.50463,"longtitude":126.771902},{"address":"\uc81c\uc8fc\ud2b9\ubcc4\uc790\uce58\ub3c4 \uc81c\uc8fc\uc2dc \uad6c\uc88c\uc74d \ub355\ud3c9\ub85c 365","location":"\ub355\ucc9c\ub9c8\uc744\ud68c\uad00 \uc55e","latitude":33.502064,"longtitude":126.771421},{"address":"\uc81c\uc8fc\ud2b9\ubcc4\uc790\uce58\ub3c4 \uc81c\uc8fc\uc2dc \uad6c\uc88c\uc74d \ub3d9\ubc31\ub85c 458(\ub355\ucc9c\ub9ac 766)","location":"\ud55c\uc6b8\ub79c\ub4dc","latitude":33.49651,"longtitude":126.751019},{"address":"\uc81c\uc8fc\ud2b9\ubcc4\uc790\uce58\ub3c4 \uc81c\uc8fc\uc2dc \uad6c\uc88c\uc74d \ub355\ud3c9\ub85c 77(\ub355\ucc9c\ub9ac 1033)","location":"\ud6a8\ubbf8\ub18d\uc6d0\uc55e","latitude":33.487748,"longtitude":126.749406},{"address":"\uc81c\uc8fc\ud2b9\ubcc4\uc790\uce58\ub3c4 \uc81c\uc8fc\uc2dc \uad6c\uc88c\uc74d \ub355\ud3c9\ub85c 31","location":"\uc0c1\ub355\ucc9c","latitude":33.48494,"longtitude":126.747739},{"address":"\uc81c\uc8fc\ud2b9\ubcc4\uc790\uce58\ub3c4 \uc81c\uc8fc\uc2dc \uad6c\uc88c\uc74d \ub355\ucc9c\ub9ac 1181(\ub355\ud3c9\ub85c 12)","location":"\uc0c1\ub355\ucc9c\ubc84\uc2a4\uc815\uac70\uc7a5\uc606","latitude":33.483553,"longtitude":126.746478},{"address":"\uc81c\uc8fc\ud2b9\ubcc4\uc790\uce58\ub3c4 \uc81c\uc8fc\uc2dc \uad6c\uc88c\uc74d \uc911\uc0b0\uac04\ub3d9\ub85c 1921(\ub355\ucc9c\ub9ac \uc0b0 11)","location":"\uc81c\uc8fc\uae00\ub7a8\ud551, \uc790\uccb4\uc801\uc124\uce58","latitude":33.481371,"longtitude":126.751836},{"address":"\uc81c\uc8fc\ud2b9\ubcc4\uc790\uce58\ub3c4 \uc81c\uc8fc\uc2dc \uad6c\uc88c\uc74d \ub3d9\ubcf5\ub85c 5","location":"\ud574\ub140\uc2dd\ub2f9 \uc606","latitude":33.553344,"longtitude":126.706827},{"address":"\uc81c\uc8fc\ud2b9\ubcc4\uc790\uce58\ub3c4 \uc81c\uc8fc\uc2dc \uad6c\uc88c\uc74d \ub3d9\ubcf5\ub85c 34","location":"\ud574\ub140\ucd0c\uc2dd\ub2f9 \uc55e","latitude":33.55332,"longtitude":126.709669},{"address":"\uc81c\uc8fc\ud2b9\ubcc4\uc790\uce58\ub3c4 \uc81c\uc8fc\uc2dc \uad6c\uc88c\uc74d \ub3d9\ubcf5\ub85c 75-8","location":"\ub3d9\ubcf5\ub9ac 75-8 \uc88c\uce21","latitude":33.553688,"longtitude":126.714149},{"address":"\uc81c\uc8fc\ud2b9\ubcc4\uc790\uce58\ub3c4 \uc81c\uc8fc\uc2dc \uad6c\uc88c\uc74d \ub3d9\ubcf5\ub9ac1379","location":"\ub3d9\ub3d9\uac8c\uc2a4\ud2b8\ud558\uc6b0\uc2a4\uc606","latitude":33.553138,"longtitude":126.71478},{"address":"\uc81c\uc8fc\ud2b9\ubcc4\uc790\uce58\ub3c4 \uc81c\uc8fc\uc2dc \uad6c\uc88c\uc74d \uad6c\uc88c\ud574\uc548\ub85c 32","location":"\ud574\ub140\uc7a0\uc218\ucd0c\uc2dd\ub2f9 \uc606","latitude":33.555149,"longtitude":126.719058},{"address":"\uc81c\uc8fc\ud2b9\ubcc4\uc790\uce58\ub3c4 \uc81c\uc8fc\uc2dc \uad6c\uc88c\uc74d \uc77c\uc8fc\ub3d9\ub85c 1724","location":"\uaf2c\ub728\ub3c4\ub974\ud638\ud154","latitude":33.552263,"longtitude":126.716486},{"address":"\uc81c\uc8fc\ud2b9\ubcc4\uc790\uce58\ub3c4 \uc81c\uc8fc\uc2dc \uad6c\uc88c\uc74d \ub3d9\ubcf5\ub0a84\uae38 3","location":"\ucde8\ub77d\uad6c\uc870(\ub3d9\uc0b0\uc544\ub798)","latitude":33.551394,"longtitude":126.712853},{"address":"\uc81c\uc8fc\ud2b9\ubcc4\uc790\uce58\ub3c4 \uc81c\uc8fc\uc2dc \uad6c\uc88c\uc74d \ub3d9\ubcf5\ub0a82\uae38 19-2","location":"\ucde8\ub77d\uad6c\uc870(\ub3d9\uc0b0\uc704)","latitude":33.549792,"longtitude":126.709304},{"address":"\uc81c\uc8fc\ud2b9\ubcc4\uc790\uce58\ub3c4 \uc81c\uc8fc\uc2dc \uad6c\uc88c\uc74d \uc77c\uc8fc\ub3d9\ub85c 1626","location":"\uba54\uc774\ub354\ud638\ud154 \ub4a4\ud3b8","latitude":33.552007,"longtitude":126.706345},{"address":"\uc81c\uc8fc\ud2b9\ubcc4\uc790\uce58\ub3c4 \uc81c\uc8fc\uc2dc \uad6c\uc88c\uc74d \uc0c1\ub3c4\ub85c 3(\uc0c1\ub3c4\ub9ac 334-4)","location":"\uc81c\uc8fc\ud2b9\ubcc4\uc790\uce58\ub3c4 \uc81c\uc8fc\uc2dc \uad6c\uc88c\uc74d \uc0c1\ub3c4\ub85c 3(\uc0c1\ub3c4\ub9ac 334-4)","latitude":33.514348,"longtitude":126.865997},{"address":"\uc81c\uc8fc\ud2b9\ubcc4\uc790\uce58\ub3c4 \uc81c\uc8fc\uc2dc \uad6c\uc88c\uc74d \uc138\uc885\ub85c 201(\ud558\ub3c4\ub9ac \uc0b076)","location":"125\uc804\uacbd\ub300 \uc55e","latitude":33.50713,"longtitude":126.877225},{"address":"\uc81c\uc8fc\ud2b9\ubcc4\uc790\uce58\ub3c4 \uc81c\uc8fc\uc2dc \uad6c\uc88c\uc74d \uc0c1\ud558\ub3c4\uae38 34","location":"\uc81c\uc8fc\ud2b9\ubcc4\uc790\uce58\ub3c4 \uc81c\uc8fc\uc2dc \uad6c\uc88c\uc74d \uc0c1\ud558\ub3c4\uae38 34","latitude":33.516175,"longtitude":126.867448},{"address":"\uc81c\uc8fc\ud2b9\ubcc4\uc790\uce58\ub3c4 \uc81c\uc8fc\uc2dc \uad6c\uc88c\uc74d \uc0c1\ud558\ub3c4\uae38 46\uc55e","location":"\uc81c\uc8fc\ud2b9\ubcc4\uc790\uce58\ub3c4 \uc81c\uc8fc\uc2dc \uad6c\uc88c\uc74d \uc0c1\ud558\ub3c4\uae38 46\uc55e","latitude":33.51647,"longtitude":126.868445},{"address":"\uc81c\uc8fc\ud2b9\ubcc4\uc790\uce58\ub3c4 \uc81c\uc8fc\uc2dc \uad6c\uc88c\uc74d \uc0c1\ub3c4\ub9ac 471-18(\uad6c\uc88c\ub85c 128-7)","location":"\uc81c\uc8fc\ud2b9\ubcc4\uc790\uce58\ub3c4 \uc81c\uc8fc\uc2dc \uad6c\uc88c\uc74d \uc0c1\ub3c4\ub9ac 471-18(\uad6c\uc88c\ub85c 128-7)","latitude":33.520996,"longtitude":126.864748},{"address":"\uc81c\uc8fc\ud2b9\ubcc4\uc790\uce58\ub3c4 \uc81c\uc8fc\uc2dc \uad6c\uc88c\uc74d \uc0c1\ub3c4\ub9ac 471-40(\ud574\ub140\ubc15\ubb3c\uad00\uae38 26)","location":"\ud574\ub140\ubc15\ubb3c\uad00\ub0b4\uc5d0","latitude":33.523303,"longtitude":126.862887},{"address":"\uc81c\uc8fc\ud2b9\ubcc4\uc790\uce58\ub3c4 \uc81c\uc8fc\uc2dc \uad6c\uc88c\uc74d \uc138\uc885\ub85c 36(\uc138\ud654\ub9ac 98)","location":"\uc81c\uc8fc\ud2b9\ubcc4\uc790\uce58\ub3c4 \uc81c\uc8fc\uc2dc \uad6c\uc88c\uc74d \uc138\uc885\ub85c 36(\uc138\ud654\ub9ac 98)","latitude":33.515862,"longtitude":126.864077},{"address":"\uc81c\uc8fc\ud2b9\ubcc4\uc790\uce58\ub3c4 \uc81c\uc8fc\uc2dc \uad6c\uc88c\uc74d \uc138\ud654\ub9ac 1561-6","location":"\uad6c\uc88c\uc74d\uc0ac\ubb34\uc18c \uc606","latitude":33.522611,"longtitude":126.852555},{"address":"\uc81c\uc8fc\ud2b9\ubcc4\uc790\uce58\ub3c4 \uc81c\uc8fc\uc2dc \uad6c\uc88c\uc74d \uc77c\uc8fc\ub3d9\ub85c 3132(\uc138\ud654\ub9ac 1198)","location":"\uc138\ud654\uc911\ud559\uad50 \uc548","latitude":33.521797,"longtitude":126.854023},{"address":"\uc81c\uc8fc\ud2b9\ubcc4\uc790\uce58\ub3c4 \uc81c\uc8fc\uc2dc \uad6c\uc88c\uc74d \uc77c\uc8fc\ub3d9\ub85c 3132(\uc138\ud654\ub9ac 1198-1)","location":"\ub3d9\ub141\ub3c4\uc11c\uad00 \uc548","latitude":33.520961,"longtitude":126.854917},{"address":"\uc81c\uc8fc\ud2b9\ubcc4\uc790\uce58\ub3c4 \uc81c\uc8fc\uc2dc \uad6c\uc88c\uc74d \ucda9\ub82c\ub85c 14 (\uc138\ud654\ub9ac 1216-2)","location":"\uc804\ud5a5\ub3d9\ubcf5\uc9c0\ud68c\uad00 \uc55e","latitude":33.519321,"longtitude":126.855598},{"address":"\uc81c\uc8fc\ud2b9\ubcc4\uc790\uce58\ub3c4 \uc81c\uc8fc\uc2dc \uad6c\uc88c\uc74d \uc138\ud654\ub0a8\uae38 25(\uc138\ud654\ub9ac 875-3)","location":"\uc81c\uc8fc\ud2b9\ubcc4\uc790\uce58\ub3c4 \uc81c\uc8fc\uc2dc \uad6c\uc88c\uc74d \uc138\ud654\ub0a8\uae38 25(\uc138\ud654\ub9ac 875-3)","latitude":33.517663,"longtitude":126.857219},{"address":"\uc81c\uc8fc\ud2b9\ubcc4\uc790\uce58\ub3c4 \uc81c\uc8fc\uc2dc \uad6c\uc88c\uc74d \uc138\uc1a1\ub85c 17","location":"\ud569\uc804\ub3d9\ubcf5\uc9c0\ud68c\uad00 \uc8fc\ucc28\uc7a5","latitude":33.516578,"longtitude":126.860158},{"address":"\uc81c\uc8fc\ud2b9\ubcc4\uc790\uce58\ub3c4 \uc81c\uc8fc\uc2dc \uad6c\uc88c\uc74d \uc138\ud654\ud569\uc8041\uae38 19 \ub0a8\uce21","location":"\uc81c\uc8fc\ud2b9\ubcc4\uc790\uce58\ub3c4 \uc81c\uc8fc\uc2dc \uad6c\uc88c\uc74d \uc138\ud654\ud569\uc8041\uae38 19 \ub0a8\uce21","latitude":33.514592,"longtitude":126.860731},{"address":"\uc81c\uc8fc\ud2b9\ubcc4\uc790\uce58\ub3c4 \uc81c\uc8fc\uc2dc \uad6c\uc88c\uc74d \uc138\ud654\ub9ac 1510-1","location":"\uc2e0\uc601\uc2dd\ud488 \uadfc\ucc98","latitude":null,"longtitude":null},{"address":"\uc81c\uc8fc\ud2b9\ubcc4\uc790\uce58\ub3c4 \uc81c\uc8fc\uc2dc \uad6c\uc88c\uc74d \uad6c\uc88c\ub85c 116 \uc55e","location":"\ud574\ub140\ubc15\ubb3c\uad00","latitude":33.521113,"longtitude":126.862908},{"address":"\uc81c\uc8fc\ud2b9\ubcc4\uc790\uce58\ub3c4 \uc81c\uc8fc\uc2dc \uad6c\uc88c\uc74d \uc138\ud654\ub9ac 1381-2(\ud574\ub9de\uc774\ud574\uc548\ub85c 1465)","location":"\ubbf8\uc5d8\ub4dc\uc138\ud654 \ub9de\uc740\ud3b8","latitude":33.524729,"longtitude":126.861852},{"address":"\uc81c\uc8fc\ud2b9\ubcc4\uc790\uce58\ub3c4 \uc81c\uc8fc\uc2dc \uad6c\uc88c\uc74d \uc138\ud65411\uae38 22","location":"\uc138\ud654\ub9ac \ud1b5\ud56d\ub3d9\ud68c\uad00 \uc55e","latitude":33.52312,"longtitude":126.86108},{"address":"\uc81c\uc8fc\ud2b9\ubcc4\uc790\uce58\ub3c4 \uc81c\uc8fc\uc2dc \uad6c\uc88c\uc74d \uc138\ud654 14\uae38 6","location":"\uc601\uc8fc\uce74\uc13c\ud130 \uadfc\ucc98","latitude":33.52071,"longtitude":126.860517},{"address":"\uc81c\uc8fc\ud2b9\ubcc4\uc790\uce58\ub3c4 \uc81c\uc8fc\uc2dc \uad6c\uc88c\uc74d \uc138\ud654 12\uae38 12-1","location":"\uad6c\uc88c\ubcf4\uac74\uc9c0\uc18c \uc55e\uace8\ubaa9","latitude":33.520044,"longtitude":126.85955},{"address":"\uc81c\uc8fc\ud2b9\ubcc4\uc790\uce58\ub3c4 \uc81c\uc8fc\uc2dc \uad6c\uc88c\uc74d \uc138\ud654 10\uae38 5-1","location":"\uc81c\uc8fc\ud2b9\ubcc4\uc790\uce58\ub3c4 \uc81c\uc8fc\uc2dc \uad6c\uc88c\uc74d \uc138\ud654 10\uae38 5-1","latitude":33.520547,"longtitude":126.85834},{"address":"\uc81c\uc8fc\ud2b9\ubcc4\uc790\uce58\ub3c4 \uc81c\uc8fc\uc2dc \uad6c\uc88c\uc74d \uc138\ud654 8\uae38 10 \uc55e","location":"\uc81c\uc8fc\ud2b9\ubcc4\uc790\uce58\ub3c4 \uc81c\uc8fc\uc2dc \uad6c\uc88c\uc74d \uc138\ud654 8\uae38 10 \uc55e","latitude":33.521549,"longtitude":126.857401},{"address":"\uc81c\uc8fc\ud2b9\ubcc4\uc790\uce58\ub3c4 \uc81c\uc8fc\uc2dc \uad6c\uc88c\uc74d \uc138\ud654 7\uae38 12","location":"\uc138\ud654\ucd08\ub4f1\ud559\uad50 \ud6c4\ubb38\n(\ud6c8\uc77c\uce74\uc13c\ud130 \uac74\ub108\ud3b8)","latitude":33.523235,"longtitude":126.858876},{"address":"\uc81c\uc8fc\ud2b9\ubcc4\uc790\uce58\ub3c4 \uc81c\uc8fc\uc2dc \uad6c\uc88c\uc74d \uc138\ud6544\uae38 12","location":"\uc138\ud654\ub9ac \ubbf8\ub9ac\ub0b4\ube4c \uc55e","latitude":33.522451,"longtitude":126.855503},{"address":"\uc81c\uc8fc\ud2b9\ubcc4\uc790\uce58\ub3c4 \uc81c\uc8fc\uc2dc \uad6c\uc88c\uc74d \uad6c\uc88c\ub85c 26-8","location":"\ub9cc\ucc9c\ud0d5 \uc55e","latitude":33.522864,"longtitude":126.854437},{"address":"\uc81c\uc8fc\ud2b9\ubcc4\uc790\uce58\ub3c4 \uc81c\uc8fc\uc2dc \uad6c\uc88c\uc74d \uc138\ud654\ub9ac 1477-3","location":"\uc1fc\ub514\uce58 \uce74\ud398 \uc606","latitude":33.524722,"longtitude":126.85947},{"address":"\uc81c\uc8fc\ud2b9\ubcc4\uc790\uce58\ub3c4 \uc81c\uc8fc\uc2dc \uad6c\uc88c\uc74d \uc138\ud6541\uae38 12","location":"\ucc9c\ud558\uc77c\ubbf8 \ub9de\uc740\ud3b8","latitude":33.524518,"longtitude":126.854475},{"address":"\uc81c\uc8fc\ud2b9\ubcc4\uc790\uce58\ub3c4 \uc81c\uc8fc\uc2dc \uad6c\uc88c\uc74d \uc138\ud654\ub9ac 1491-3","location":"\uc0c1\ud558\uc774\ubc18\uc810 \uace8\ubaa9 \uc8fc\ucc28\uc7a5 \uc778\uadfc","latitude":33.524219,"longtitude":126.856568},{"address":"\uc81c\uc8fc\ud2b9\ubcc4\uc790\uce58\ub3c4 \uc81c\uc8fc\uc2dc \uad6c\uc88c\uc74d \uc138\ud6543\uae38 18","location":"\uc8fc\ucc28\uc7a5","latitude":33.524822,"longtitude":126.85586},{"address":"\uc81c\uc8fc\ud2b9\ubcc4\uc790\uce58\ub3c4 \uc81c\uc8fc\uc2dc \uad6c\uc88c\uc74d \uc138\ud654\ub9ac1500-6(\ud574\ub9de\uc774\ud574\uc548\ub85c 1412)","location":"\ubc14\ub2e4\ud68c\uad6d\uc218 \uc606(\uc138\ud654\uc624\uc77c\uc7a5\uc778\uadfc)","latitude":33.52575,"longtitude":126.857863},{"address":"\uc81c\uc8fc\ud2b9\ubcc4\uc790\uce58\ub3c4 \uc81c\uc8fc\uc2dc \uad6c\uc88c\uc74d \uc138\ud3c9\ud56d\ub85c 46-9","location":"\uc138\ud654\ub9ac\uc0ac\ubb34\uc18c \uc8fc\ucc28\uc7a5","latitude":33.52702,"longtitude":126.856454},{"address":"\uc81c\uc8fc\ud2b9\ubcc4\uc790\uce58\ub3c4 \uc81c\uc8fc\uc2dc \uad6c\uc88c\uc74d \uc138\ud3c9\ud56d\ub85c 46-3","location":"\ub9ac\uc0ac\ubb34\uc18c \uc606(\uac70\uae08\ub3c4\uc544\uad6c\ucc1c\uc55e)","latitude":33.527125,"longtitude":126.855408},{"address":"\uc81c\uc8fc\ud2b9\ubcc4\uc790\uce58\ub3c4 \uc81c\uc8fc\uc2dc \uad6c\uc88c\uc74d \uc1a1\ub2f9\ub9ac 2602-1\uc55e","location":"\ub300\ucc9c\ub3d9\uc0ac\uac70\ub9ac","latitude":33.436515,"longtitude":126.735389},{"address":"\uc81c\uc8fc\ud2b9\ubcc4\uc790\uce58\ub3c4 \uc81c\uc8fc\uc2dc \uad6c\uc88c\uc74d \ube44\uc790\ub9bc\ub85c 1575(\uc1a1\ub2f9\ub9ac 2250-2)","location":"\uc81c\uc8fc\ub2f4 \uc2dd\ub2f9","latitude":33.451315,"longtitude":126.768503},{"address":"\uc81c\uc8fc\ud2b9\ubcc4\uc790\uce58\ub3c4 \uc81c\uc8fc\uc2dc \uad6c\uc88c\uc74d \ube44\uc790\ub9bc\ub85c 1760 \uc55e","location":"\uc1a1\ub2f9\uc0c1\ub3d9 \ubc84\uc2a4\uc815\uac70\uc7a5\uc55e","latitude":33.466529,"longtitude":126.772572},{"address":"\uc81c\uc8fc\ud2b9\ubcc4\uc790\uce58\ub3c4 \uc81c\uc8fc\uc2dc \uad6c\uc88c\uc74d \uc1a1\ub2f9\uc11c1\uae38 4(\uc1a1\ub2f9\ub9ac 1572-4)","location":"\ubcf4\uac74\uc9c4\ub8cc\uc18c \uc55e","latitude":33.469969,"longtitude":126.775615},{"address":"\uc81c\uc8fc\ud2b9\ubcc4\uc790\uce58\ub3c4 \uc81c\uc8fc\uc2dc \uad6c\uc88c\uc74d \uc911\uc0b0\uac04\ub3d9\ub85c 2142","location":"\uc1a1\ub2f9\ub9ac\ubc84\uc2a4\uc815\ub958\uc7a5 \uc6b0\uce21","latitude":33.471256,"longtitude":126.771335},{"address":"\uc81c\uc8fc\ud2b9\ubcc4\uc790\uce58\ub3c4 \uc81c\uc8fc\uc2dc \uad6c\uc88c\uc74d \uc1a1\ub2f9\ub9ac 1230-5(\ube44\uc790\ub9bc\ub85c 1839-5 \uc785\uad6c)","location":"\uc81c\uc8fc\ud2b9\ubcc4\uc790\uce58\ub3c4 \uc81c\uc8fc\uc2dc \uad6c\uc88c\uc74d \uc1a1\ub2f9\ub9ac 1230-5(\ube44\uc790\ub9bc\ub85c 1839-5 \uc785\uad6c)","latitude":33.472628,"longtitude":126.776655},{"address":"\uc81c\uc8fc\ud2b9\ubcc4\uc790\uce58\ub3c4 \uc81c\uc8fc\uc2dc \uad6c\uc88c\uc74d \uc911\uc0b0\uac04\ub3d9\ub85c 2205(\uc1a1\ub2f9\ub9ac 1277)","location":"\uc81c\uc8fc\ud2b9\ubcc4\uc790\uce58\ub3c4 \uc81c\uc8fc\uc2dc \uad6c\uc88c\uc74d \uc911\uc0b0\uac04\ub3d9\ub85c 2205(\uc1a1\ub2f9\ub9ac 1277)","latitude":33.471563,"longtitude":126.778624},{"address":"\uc81c\uc8fc\ud2b9\ubcc4\uc790\uce58\ub3c4 \uc81c\uc8fc\uc2dc \uad6c\uc88c\uc74d \uc911\uc0b0\uac04\ub3d9\ub85c 2222","location":"\uc1a1\ub2f9\ub18d\ud611 \ub9de\uc740\ud3b8","latitude":33.47227,"longtitude":126.780591},{"address":"\uc81c\uc8fc\ud2b9\ubcc4\uc790\uce58\ub3c4 \uc81c\uc8fc\uc2dc \uad6c\uc88c\uc74d \uc911\uc0b0\uac04\ub3d9\ub85c 2240","location":"(\uad6c)\uc1a1\ub2f9\ub9ac\uc0ac\ubb34\uc18c \uc11c\uce21","latitude":33.47165,"longtitude":126.781861},{"address":"\uc81c\uc8fc\ud2b9\ubcc4\uc790\uce58\ub3c4 \uc81c\uc8fc\uc2dc \uad6c\uc88c\uc74d \uc1a1\ub2f9\ub9ac 1445-3","location":"\uc1a1\ub2f9\ub9ac \uae09\uc218\ud0d1 \uc55e","latitude":33.470417,"longtitude":126.786856},{"address":"\uc81c\uc8fc\ud2b9\ubcc4\uc790\uce58\ub3c4 \uc81c\uc8fc\uc2dc \uad6c\uc88c\uc74d \uc1a1\ub2f9\ub9ac 1485","location":"\ub192\uc740\uc624\ub984\uc785\uad6c","latitude":33.468552,"longtitude":126.785067},{"address":"\uc81c\uc8fc\ud2b9\ubcc4\uc790\uce58\ub3c4 \uc81c\uc8fc\uc2dc \uad6c\uc88c\uc74d \uc1a1\ub2f95\uae38 19","location":"\uae40\uc131\uc885\uc528\ud0dd \uc55e","latitude":null,"longtitude":null},{"address":"\uc81c\uc8fc\ud2b9\ubcc4\uc790\uce58\ub3c4 \uc81c\uc8fc\uc2dc \uad6c\uc88c\uc74d \uc6d4\uc8157\uae38 1","location":"\uad6c\uc88c\uc911\uc559\ucd08 \uc548","latitude":33.552164,"longtitude":126.798228},{"address":"\uc81c\uc8fc\ud2b9\ubcc4\uc790\uce58\ub3c4 \uc81c\uc8fc\uc2dc \uad6c\uc88c\uc74d \uc6d4\uc815\ub9ac 231-2\ubc88\uc9c0 \uc55e","location":"\uc81c\uc8fc\ud2b9\ubcc4\uc790\uce58\ub3c4 \uc81c\uc8fc\uc2dc \uad6c\uc88c\uc74d \uc6d4\uc815\ub9ac 231-2\ubc88\uc9c0 \uc55e","latitude":33.552467,"longtitude":126.796015},{"address":"\uc81c\uc8fc\ud2b9\ubcc4\uc790\uce58\ub3c4 \uc81c\uc8fc\uc2dc \uad6c\uc88c\uc74d \uc6d4\uc8153\uae38 57(\uc6d4\uc815\ub9ac 548-1)","location":"\uc6d4\uc815\ub9c8\uc744\ud68c\uad00 \uc55e","latitude":33.55578,"longtitude":126.795178},{"address":"\uc81c\uc8fc\ud2b9\ubcc4\uc790\uce58\ub3c4 \uc81c\uc8fc\uc2dc \uad6c\uc88c\uc74d \uc6d4\uc815\ub9ac 555-2","location":"\uc6d4\uc815\ub9ac \ud574\uc548\ud3ec\uad6c \uc785\uad6c","latitude":33.557182,"longtitude":126.794508},{"address":"\uc81c\uc8fc\ud2b9\ubcc4\uc790\uce58\ub3c4 \uc81c\uc8fc\uc2dc \uad6c\uc88c\uc74d \uc6d4\uc815\uc11c\ub85c 169","location":"\uc81c\uc8fc\ud2b9\ubcc4\uc790\uce58\ub3c4 \uc81c\uc8fc\uc2dc \uad6c\uc88c\uc74d \uc6d4\uc815\uc11c\ub85c 169","latitude":33.563122,"longtitude":126.778055},{"address":"\uc81c\uc8fc\ud2b9\ubcc4\uc790\uce58\ub3c4 \uc81c\uc8fc\uc2dc \uad6c\uc88c\uc74d \uc6d4\uc815\ub9ac 1321-13","location":"\uc81c\uc8fc\ud2b9\ubcc4\uc790\uce58\ub3c4 \uc81c\uc8fc\uc2dc \uad6c\uc88c\uc74d \uc6d4\uc815\ub9ac 1321-13","latitude":33.550963,"longtitude":126.782281},{"address":"\uc81c\uc8fc\ud2b9\ubcc4\uc790\uce58\ub3c4 \uc81c\uc8fc\uc2dc \uad6c\uc88c\uc74d \uc6d4\uc8153\uae38 8","location":"\uc6d4\uc815\ub9ac \ub9c8\uc744\uc785\uad6c","latitude":33.552258,"longtitude":126.791571},{"address":"\uc81c\uc8fc\ud2b9\ubcc4\uc790\uce58\ub3c4 \uc81c\uc8fc\uc2dc \uad6c\uc88c\uc74d \uc885\ub2ec\ub9ac 1840","location":"\uc81c\uc8fc\ud2b9\ubcc4\uc790\uce58\ub3c4 \uc81c\uc8fc\uc2dc \uad6c\uc88c\uc74d \uc885\ub2ec\ub9ac 1840","latitude":33.494272,"longtitude":126.89441},{"address":"\uc81c\uc8fc\ud2b9\ubcc4\uc790\uce58\ub3c4 \uc81c\uc8fc\uc2dc \uad6c\uc88c\uc74d \uc885\ub2ec\ub85c 59","location":"\uc885\ub2ec\ucd08 \uadfc\ucc98","latitude":33.492824,"longtitude":126.89619},{"address":"\uc81c\uc8fc\ud2b9\ubcc4\uc790\uce58\ub3c4 \uc81c\uc8fc\uc2dc \uad6c\uc88c\uc74d \uc885\ub2ec\ub17c\uae38 56","location":"\uc81c\uc8fc\ud2b9\ubcc4\uc790\uce58\ub3c4 \uc81c\uc8fc\uc2dc \uad6c\uc88c\uc74d \uc885\ub2ec\ub17c\uae38 56","latitude":33.492096,"longtitude":126.899564},{"address":"\uc81c\uc8fc\ud2b9\ubcc4\uc790\uce58\ub3c4 \uc81c\uc8fc\uc2dc \uad6c\uc88c\uc74d \uc885\ub2ec\ub3d9\uae38 3","location":"\uc885\ub2ec\ub9ac\uc0ac\ubb34\uc18c\uc55e","latitude":33.492734,"longtitude":126.900324},{"address":"\uc81c\uc8fc\ud2b9\ubcc4\uc790\uce58\ub3c4 \uc81c\uc8fc\uc2dc \uad6c\uc88c\uc74d \uc885\ub2ec\ub3d9\uae38 3","location":"\uc885\ub2ec\ub9ac\uc0ac\ubb34\uc18c\uc55e","latitude":33.492734,"longtitude":126.900324},{"address":"\uc81c\uc8fc\ud2b9\ubcc4\uc790\uce58\ub3c4 \uc81c\uc8fc\uc2dc \uad6c\uc88c\uc74d \ud574\ub9de\uc774\ud574\uc548\ub85c 2196(\uc885\ub2ec\ub9ac 42-5)","location":"\uc18c\uae08\ubc14\uce58\uc21c\uc774\ub124 \uadfc\ucc98","latitude":33.503398,"longtitude":126.912826},{"address":"\uc81c\uc8fc\ud2b9\ubcc4\uc790\uce58\ub3c4 \uc81c\uc8fc\uc2dc \uad6c\uc88c\uc74d \uc885\ub2ec\ub9ac 1396-1","location":"\uc544\ubaa8\ub974\uac8c\uc2a4\ud2b8\ud558\uc6b0\uc2a4\uc55e","latitude":33.509919,"longtitude":126.90314},{"address":"\uc81c\uc8fc\ud2b9\ubcc4\uc790\uce58\ub3c4 \uc81c\uc8fc\uc2dc \uad6c\uc88c\uc74d \uc885\ub2ec\ub9ac 1418-1","location":"\uc774\uc57c\uae30\ubcc4\ubc29","latitude":33.510111,"longtitude":126.901731},{"address":"\uc81c\uc8fc\ud2b9\ubcc4\uc790\uce58\ub3c4 \uc81c\uc8fc\uc2dc \uad6c\uc88c\uc74d \ud3c9\ub300\ub9ac 127-3(\uc77c\uc8fc\ub3d9\ub85c 3096 \ub9de\uc740\ud3b8)","location":"\uc81c\uc8fc\ud2b9\ubcc4\uc790\uce58\ub3c4 \uc81c\uc8fc\uc2dc \uad6c\uc88c\uc74d \ud3c9\ub300\ub9ac 127-3(\uc77c\uc8fc\ub3d9\ub85c 3096 \ub9de\uc740\ud3b8)","latitude":33.523922,"longtitude":126.850815},{"address":"\uc81c\uc8fc\ud2b9\ubcc4\uc790\uce58\ub3c4 \uc81c\uc8fc\uc2dc \uad6c\uc88c\uc74d \ud3c9\ub3009\uae38 15","location":"\ub2f9\uadfc\ucc3d\uace0 \uc55e","latitude":33.52588,"longtitude":126.849864},{"address":"\uc81c\uc8fc\ud2b9\ubcc4\uc790\uce58\ub3c4 \uc81c\uc8fc\uc2dc \uad6c\uc88c\uc74d \ud3c9\ub300\ub9ac 65-12(\ud3c9\ub300 9\uae38 27)","location":"\uc81c\uc8fc\ud2b9\ubcc4\uc790\uce58\ub3c4 \uc81c\uc8fc\uc2dc \uad6c\uc88c\uc74d \ud3c9\ub300\ub9ac 65-12(\ud3c9\ub300 9\uae38 27)","latitude":33.52634,"longtitude":126.851098},{"address":"\uc81c\uc8fc\ud2b9\ubcc4\uc790\uce58\ub3c4 \uc81c\uc8fc\uc2dc \uad6c\uc88c\uc74d \ud3c9\ub30013\uae38 26","location":"\ud558\ub098\ub85c\ub9c8\ud2b8 \ub4a4\ud3b8 \uc8fc\ucc28\uc7a5","latitude":33.525181,"longtitude":126.852927},{"address":"\uc81c\uc8fc\ud2b9\ubcc4\uc790\uce58\ub3c4 \uc81c\uc8fc\uc2dc \uad6c\uc88c\uc74d \ud3c9\ub300\ub9ac 3348-2(\ud3c9\ub30013\uae38 54)","location":"\uc81c\uc8fc\ud2b9\ubcc4\uc790\uce58\ub3c4 \uc81c\uc8fc\uc2dc \uad6c\uc88c\uc74d \ud3c9\ub300\ub9ac 3348-2(\ud3c9\ub30013\uae38 54)","latitude":33.527103,"longtitude":126.854546},{"address":"\uc81c\uc8fc\ud2b9\ubcc4\uc790\uce58\ub3c4 \uc81c\uc8fc\uc2dc \uad6c\uc88c\uc74d \ud3c9\ub3009\uae38 54(\ud3c9\ub300\ub9ac 8-29)","location":"\uc11c\ub828\ube4c\ub9ac\uc9c0 \uc548","latitude":33.527966,"longtitude":126.852773},{"address":"\uc81c\uc8fc\ud2b9\ubcc4\uc790\uce58\ub3c4 \uc81c\uc8fc\uc2dc \uad6c\uc88c\uc74d \ud3c9\ub300\ub9ac 4-7","location":"\uc81c\uc8fc\ud2b9\ubcc4\uc790\uce58\ub3c4 \uc81c\uc8fc\uc2dc \uad6c\uc88c\uc74d \ud3c9\ub300\ub9ac 4-7","latitude":33.529741,"longtitude":126.852821},{"address":"\uc81c\uc8fc\ud2b9\ubcc4\uc790\uce58\ub3c4 \uc81c\uc8fc\uc2dc \uad6c\uc88c\uc74d \ud3c9\ub300\ub9ac 4-20","location":"\uba85\uc9c4\uc804\ubcf5\uadfc\ucc98","latitude":33.532391,"longtitude":126.850762},{"address":"\uc81c\uc8fc\ud2b9\ubcc4\uc790\uce58\ub3c4 \uc81c\uc8fc\uc2dc \uad6c\uc88c\uc74d \ud3c9\ub3007\uae38 57(\ud3c9\ub300\ub9ac 2009-3)","location":"\uc81c\uc8fc\ud2b9\ubcc4\uc790\uce58\ub3c4 \uc81c\uc8fc\uc2dc \uad6c\uc88c\uc74d \ud3c9\ub3007\uae38 57(\ud3c9\ub300\ub9ac 2009-3)","latitude":33.53258,"longtitude":126.844785},